{
  "type": "FeatureCollection",
  "features": [
    {
      "type": "Feature",
      "geometry": {
        "type": "Point",
        "coordinates": [
          -4.0082563,
          5.3599517
        ]
      },
      "properties": {
        "sitename": "Abidjan",
        "Forecast": "DoS Missions"
      }
    },
    {
      "type": "Feature",
      "geometry": {
        "type": "Point",
        "coordinates": [
          54.433874,
          24.42431
        ]
      },
      "properties": {
        "sitename": "Abu_Dhabi",
        "Forecast": "DoS Missions"
      }
    },
    {
      "type": "Feature",
      "geometry": {
        "type": "Point",
        "coordinates": [
          7.477374,
          9.041648
        ]
      },
      "properties": {
        "sitename": "Abuja",
        "Forecast": "DoS Missions"
      }
    },
    {
      "type": "Feature",
      "geometry": {
        "type": "Point",
        "coordinates": [
          -0.170724,
          5.580642
        ]
      },
      "properties": {
        "sitename": "Accra",
        "Forecast": "DoS Missions"
      }
    },
    {
      "type": "Feature",
      "geometry": {
        "type": "Point",
        "coordinates": [
          35.3308285,
          36.9914194
        ]
      },
      "properties": {
        "sitename": "Adana",
        "Forecast": "DoS Missions"
      }
    },
    {
      "type": "Feature",
      "geometry": {
        "type": "Point",
        "coordinates": [
          38.761641,
          9.058498
        ]
      },
      "properties": {
        "sitename": "Addis_Ababa",
        "Forecast": "DoS Missions"
      }
    },
    {
      "type": "Feature",
      "geometry": {
        "type": "Point",
        "coordinates": [
          29.9187387,
          31.2000924
        ]
      },
      "properties": {
        "sitename": "Alexandria",
        "Forecast": "DoS Missions"
      }
    },
    {
      "type": "Feature",
      "geometry": {
        "type": "Point",
        "coordinates": [
          3.039114,
          36.755798
        ]
      },
      "properties": {
        "sitename": "Algiers",
        "Forecast": "DoS Missions"
      }
    },
    {
      "type": "Feature",
      "geometry": {
        "type": "Point",
        "coordinates": [
          76.93118,
          43.252855
        ]
      },
      "properties": {
        "sitename": "Almaty",
        "Forecast": "DoS Missions"
      }
    },
    {
      "type": "Feature",
      "geometry": {
        "type": "Point",
        "coordinates": [
          35.880501,
          31.945021
        ]
      },
      "properties": {
        "sitename": "Amman",
        "Forecast": "DoS Missions"
      }
    },
    {
      "type": "Feature",
      "geometry": {
        "type": "Point",
        "coordinates": [
          4.9041389,
          52.3675734
        ]
      },
      "properties": {
        "sitename": "Amsterdam",
        "Forecast": "DoS Missions"
      }
    },
    {
      "type": "Feature",
      "geometry": {
        "type": "Point",
        "coordinates": [
          32.8597419,
          39.9333635
        ]
      },
      "properties": {
        "sitename": "Ankara",
        "Forecast": "DoS Missions"
      }
    },
    {
      "type": "Feature",
      "geometry": {
        "type": "Point",
        "coordinates": [
          47.53751,
          -18.90848
        ]
      },
      "properties": {
        "sitename": "Antananarivo",
        "Forecast": "DoS Missions"
      }
    },
    {
      "type": "Feature",
      "geometry": {
        "type": "Point",
        "coordinates": [
          4.4051485,
          51.2213404
        ]
      },
      "properties": {
        "sitename": "Antwerp",
        "Forecast": "DoS Missions"
      }
    },
    {
      "type": "Feature",
      "geometry": {
        "type": "Point",
        "coordinates": [
          -171.7513551,
          -13.8506958
        ]
      },
      "properties": {
        "sitename": "Apia",
        "Forecast": "DoS Missions"
      }
    },
    {
      "type": "Feature",
      "geometry": {
        "type": "Point",
        "coordinates": [
          58.3879,
          37.9415
        ]
      },
      "properties": {
        "sitename": "Ashgabat",
        "Forecast": "DoS Missions"
      }
    },
    {
      "type": "Feature",
      "geometry": {
        "type": "Point",
        "coordinates": [
          38.9250517,
          15.3228767
        ]
      },
      "properties": {
        "sitename": "Asmara",
        "Forecast": "DoS Missions"
      }
    },
    {
      "type": "Feature",
      "geometry": {
        "type": "Point",
        "coordinates": [
          -57.60395,
          -25.293536
        ]
      },
      "properties": {
        "sitename": "Asuncion",
        "Forecast": "DoS Missions"
      }
    },
    {
      "type": "Feature",
      "geometry": {
        "type": "Point",
        "coordinates": [
          23.7275388,
          37.9838096
        ]
      },
      "properties": {
        "sitename": "Athens",
        "Forecast": "DoS Missions"
      }
    },
    {
      "type": "Feature",
      "geometry": {
        "type": "Point",
        "coordinates": [
          174.7644881,
          -36.8508827
        ]
      },
      "properties": {
        "sitename": "Auckland",
        "Forecast": "DoS Missions"
      }
    },
    {
      "type": "Feature",
      "geometry": {
        "type": "Point",
        "coordinates": [
          44.3615,
          33.3128
        ]
      },
      "properties": {
        "sitename": "Baghdad",
        "Forecast": "DoS Missions"
      }
    },
    {
      "type": "Feature",
      "geometry": {
        "type": "Point",
        "coordinates": [
          49.842946,
          40.386992
        ]
      },
      "properties": {
        "sitename": "Baku",
        "Forecast": "DoS Missions"
      }
    },
    {
      "type": "Feature",
      "geometry": {
        "type": "Point",
        "coordinates": [
          -8.036911,
          12.632524
        ]
      },
      "properties": {
        "sitename": "Bamako",
        "Forecast": "DoS Missions"
      }
    },
    {
      "type": "Feature",
      "geometry": {
        "type": "Point",
        "coordinates": [
          114.939821,
          4.9030522
        ]
      },
      "properties": {
        "sitename": "Bandar_Seri_Begawan",
        "Forecast": "DoS Missions"
      }
    },
    {
      "type": "Feature",
      "geometry": {
        "type": "Point",
        "coordinates": [
          100.486568,
          13.727622
        ]
      },
      "properties": {
        "sitename": "Bangkok",
        "Forecast": "DoS Missions"
      }
    },
    {
      "type": "Feature",
      "geometry": {
        "type": "Point",
        "coordinates": [
          18.5581899,
          4.3946735
        ]
      },
      "properties": {
        "sitename": "Bangui",
        "Forecast": "DoS Missions"
      }
    },
    {
      "type": "Feature",
      "geometry": {
        "type": "Point",
        "coordinates": [
          17.185556,
          44.7725
        ]
      },
      "properties": {
        "sitename": "Banja_Luka",
        "Forecast": "DoS Missions"
      }
    },
    {
      "type": "Feature",
      "geometry": {
        "type": "Point",
        "coordinates": [
          -16.5753186,
          13.454375
        ]
      },
      "properties": {
        "sitename": "Banjul",
        "Forecast": "DoS Missions"
      }
    },
    {
      "type": "Feature",
      "geometry": {
        "type": "Point",
        "coordinates": [
          2.168568,
          41.3873974
        ]
      },
      "properties": {
        "sitename": "Barcelona",
        "Forecast": "DoS Missions"
      }
    },
    {
      "type": "Feature",
      "geometry": {
        "type": "Point",
        "coordinates": [
          116.466258,
          39.953352
        ]
      },
      "properties": {
        "sitename": "Beijing",
        "Forecast": "DoS Missions"
      }
    },
    {
      "type": "Feature",
      "geometry": {
        "type": "Point",
        "coordinates": [
          35.5017767,
          33.8937913
        ]
      },
      "properties": {
        "sitename": "Beirut",
        "Forecast": "DoS Missions"
      }
    },
    {
      "type": "Feature",
      "geometry": {
        "type": "Point",
        "coordinates": [
          -5.93012,
          54.597285
        ]
      },
      "properties": {
        "sitename": "Belfast",
        "Forecast": "DoS Missions"
      }
    },
    {
      "type": "Feature",
      "geometry": {
        "type": "Point",
        "coordinates": [
          20.4612299,
          44.8125449
        ]
      },
      "properties": {
        "sitename": "Belgrade",
        "Forecast": "DoS Missions"
      }
    },
    {
      "type": "Feature",
      "geometry": {
        "type": "Point",
        "coordinates": [
          -88.773876,
          17.256124
        ]
      },
      "properties": {
        "sitename": "Belmopan",
        "Forecast": "DoS Missions"
      }
    },
    {
      "type": "Feature",
      "geometry": {
        "type": "Point",
        "coordinates": [
          13.404954,
          52.5200066
        ]
      },
      "properties": {
        "sitename": "Berlin",
        "Forecast": "DoS Missions"
      }
    },
    {
      "type": "Feature",
      "geometry": {
        "type": "Point",
        "coordinates": [
          7.4474468,
          46.9479739
        ]
      },
      "properties": {
        "sitename": "Bern",
        "Forecast": "DoS Missions"
      }
    },
    {
      "type": "Feature",
      "geometry": {
        "type": "Point",
        "coordinates": [
          74.58384,
          42.827626
        ]
      },
      "properties": {
        "sitename": "Bishkek",
        "Forecast": "DoS Missions"
      }
    },
    {
      "type": "Feature",
      "geometry": {
        "type": "Point",
        "coordinates": [
          -74.094856,
          4.637735
        ]
      },
      "properties": {
        "sitename": "Bogota",
        "Forecast": "DoS Missions"
      }
    },
    {
      "type": "Feature",
      "geometry": {
        "type": "Point",
        "coordinates": [
          -0.57918,
          44.837789
        ]
      },
      "properties": {
        "sitename": "Bordeaux",
        "Forecast": "DoS Missions"
      }
    },
    {
      "type": "Feature",
      "geometry": {
        "type": "Point",
        "coordinates": [
          -47.8918874,
          -15.7975154
        ]
      },
      "properties": {
        "sitename": "Brasilia",
        "Forecast": "DoS Missions"
      }
    },
    {
      "type": "Feature",
      "geometry": {
        "type": "Point",
        "coordinates": [
          17.1077478,
          48.1485965
        ]
      },
      "properties": {
        "sitename": "Bratislava",
        "Forecast": "DoS Missions"
      }
    },
    {
      "type": "Feature",
      "geometry": {
        "type": "Point",
        "coordinates": [
          15.2428853,
          -4.2633597
        ]
      },
      "properties": {
        "sitename": "Brazzaville",
        "Forecast": "DoS Missions"
      }
    },
    {
      "type": "Feature",
      "geometry": {
        "type": "Point",
        "coordinates": [
          -59.6131741,
          13.1059816
        ]
      },
      "properties": {
        "sitename": "Bridgetown",
        "Forecast": "DoS Missions"
      }
    },
    {
      "type": "Feature",
      "geometry": {
        "type": "Point",
        "coordinates": [
          4.3571696,
          50.8476424
        ]
      },
      "properties": {
        "sitename": "Brussels",
        "Forecast": "DoS Missions"
      }
    },
    {
      "type": "Feature",
      "geometry": {
        "type": "Point",
        "coordinates": [
          26.1025384,
          44.4267674
        ]
      },
      "properties": {
        "sitename": "Bucharest",
        "Forecast": "DoS Missions"
      }
    },
    {
      "type": "Feature",
      "geometry": {
        "type": "Point",
        "coordinates": [
          19.040235,
          47.497912
        ]
      },
      "properties": {
        "sitename": "Budapest",
        "Forecast": "DoS Missions"
      }
    },
    {
      "type": "Feature",
      "geometry": {
        "type": "Point",
        "coordinates": [
          -58.3815591,
          -34.6036844
        ]
      },
      "properties": {
        "sitename": "Buenos_Aires",
        "Forecast": "DoS Missions"
      }
    },
    {
      "type": "Feature",
      "geometry": {
        "type": "Point",
        "coordinates": [
          29.3598782,
          -3.361378
        ]
      },
      "properties": {
        "sitename": "Bujumbura",
        "Forecast": "DoS Missions"
      }
    },
    {
      "type": "Feature",
      "geometry": {
        "type": "Point",
        "coordinates": [
          129.0756416,
          35.1795543
        ]
      },
      "properties": {
        "sitename": "Busan",
        "Forecast": "DoS Missions"
      }
    },
    {
      "type": "Feature",
      "geometry": {
        "type": "Point",
        "coordinates": [
          31.23289,
          30.04147
        ]
      },
      "properties": {
        "sitename": "Cairo",
        "Forecast": "DoS Missions"
      }
    },
    {
      "type": "Feature",
      "geometry": {
        "type": "Point",
        "coordinates": [
          -114.1403,
          51.0814
        ]
      },
      "properties": {
        "sitename": "Calgary",
        "Forecast": "DoS Missions"
      }
    },
    {
      "type": "Feature",
      "geometry": {
        "type": "Point",
        "coordinates": [
          149.1300092,
          -35.2809368
        ]
      },
      "properties": {
        "sitename": "Canberra",
        "Forecast": "DoS Missions"
      }
    },
    {
      "type": "Feature",
      "geometry": {
        "type": "Point",
        "coordinates": [
          18.4240553,
          -33.9248685
        ]
      },
      "properties": {
        "sitename": "Cape_Town",
        "Forecast": "DoS Missions"
      }
    },
    {
      "type": "Feature",
      "geometry": {
        "type": "Point",
        "coordinates": [
          -66.9036063,
          10.4805937
        ]
      },
      "properties": {
        "sitename": "Caracas",
        "Forecast": "DoS Missions"
      }
    },
    {
      "type": "Feature",
      "geometry": {
        "type": "Point",
        "coordinates": [
          -75.4832311,
          10.3932277
        ]
      },
      "properties": {
        "sitename": "Cartagena",
        "Forecast": "DoS Missions"
      }
    },
    {
      "type": "Feature",
      "geometry": {
        "type": "Point",
        "coordinates": [
          -7.5898434,
          33.5731104
        ]
      },
      "properties": {
        "sitename": "Casablanca",
        "Forecast": "DoS Missions"
      }
    },
    {
      "type": "Feature",
      "geometry": {
        "type": "Point",
        "coordinates": [
          66.1356,
          18.4465
        ]
      },
      "properties": {
        "sitename": "CATANO",
        "Forecast": "DoS Missions"
      }
    },
    {
      "type": "Feature",
      "geometry": {
        "type": "Point",
        "coordinates": [
          -66.3562141,
          18.4425245
        ]
      },
      "properties": {
        "sitename": "Ceiba__Vega_Baja",
        "Forecast": "DoS Missions"
      }
    },
    {
      "type": "Feature",
      "geometry": {
        "type": "Point",
        "coordinates": [
          80.278475,
          13.08784
        ]
      },
      "properties": {
        "sitename": "Chennai",
        "Forecast": "DoS Missions"
      }
    },
    {
      "type": "Feature",
      "geometry": {
        "type": "Point",
        "coordinates": [
          98.9853008,
          18.7883439
        ]
      },
      "properties": {
        "sitename": "Chiang_Mai",
        "Forecast": "DoS Missions"
      }
    },
    {
      "type": "Feature",
      "geometry": {
        "type": "Point",
        "coordinates": [
          28.81938,
          47.021561
        ]
      },
      "properties": {
        "sitename": "Chisinau",
        "Forecast": "DoS Missions"
      }
    },
    {
      "type": "Feature",
      "geometry": {
        "type": "Point",
        "coordinates": [
          -106.4245478,
          31.6903638
        ]
      },
      "properties": {
        "sitename": "Ciudad_Juarez",
        "Forecast": "DoS Missions"
      }
    },
    {
      "type": "Feature",
      "geometry": {
        "type": "Point",
        "coordinates": [
          79.875341,
          6.909445
        ]
      },
      "properties": {
        "sitename": "Colombo",
        "Forecast": "DoS Missions"
      }
    },
    {
      "type": "Feature",
      "geometry": {
        "type": "Point",
        "coordinates": [
          -13.6364,
          9.5951
        ]
      },
      "properties": {
        "sitename": "Conakry",
        "Forecast": "DoS Missions"
      }
    },
    {
      "type": "Feature",
      "geometry": {
        "type": "Point",
        "coordinates": [
          12.5683372,
          55.6760968
        ]
      },
      "properties": {
        "sitename": "Copenhagen",
        "Forecast": "DoS Missions"
      }
    },
    {
      "type": "Feature",
      "geometry": {
        "type": "Point",
        "coordinates": [
          2.3912362,
          6.3702928
        ]
      },
      "properties": {
        "sitename": "Cotonou",
        "Forecast": "DoS Missions"
      }
    },
    {
      "type": "Feature",
      "geometry": {
        "type": "Point",
        "coordinates": [
          -98.6681378,
          29.4874353
        ]
      },
      "properties": {
        "sitename": "CULEBRA",
        "Forecast": "DoS Missions"
      }
    },
    {
      "type": "Feature",
      "geometry": {
        "type": "Point",
        "coordinates": [
          -68.99002,
          12.16957
        ]
      },
      "properties": {
        "sitename": "Curacao",
        "Forecast": "DoS Missions"
      }
    },
    {
      "type": "Feature",
      "geometry": {
        "type": "Point",
        "coordinates": [
          -17.526484,
          14.744791
        ]
      },
      "properties": {
        "sitename": "Dakar",
        "Forecast": "DoS Missions"
      }
    },
    {
      "type": "Feature",
      "geometry": {
        "type": "Point",
        "coordinates": [
          39.2083284,
          -6.792354
        ]
      },
      "properties": {
        "sitename": "Dar_es_Salaam",
        "Forecast": "DoS Missions"
      }
    },
    {
      "type": "Feature",
      "geometry": {
        "type": "Point",
        "coordinates": [
          50.0393017,
          26.2361248
        ]
      },
      "properties": {
        "sitename": "Dhahran",
        "Forecast": "DoS Missions"
      }
    },
    {
      "type": "Feature",
      "geometry": {
        "type": "Point",
        "coordinates": [
          90.424614,
          23.796374
        ]
      },
      "properties": {
        "sitename": "Dhaka",
        "Forecast": "DoS Missions"
      }
    },
    {
      "type": "Feature",
      "geometry": {
        "type": "Point",
        "coordinates": [
          125.5603143,
          -8.5568557
        ]
      },
      "properties": {
        "sitename": "Dili",
        "Forecast": "DoS Missions"
      }
    },
    {
      "type": "Feature",
      "geometry": {
        "type": "Point",
        "coordinates": [
          43.1456475,
          11.5720765
        ]
      },
      "properties": {
        "sitename": "Djibouti_City",
        "Forecast": "DoS Missions"
      }
    },
    {
      "type": "Feature",
      "geometry": {
        "type": "Point",
        "coordinates": [
          51.22953,
          25.3337
        ]
      },
      "properties": {
        "sitename": "Doha",
        "Forecast": "DoS Missions"
      }
    },
    {
      "type": "Feature",
      "geometry": {
        "type": "Point",
        "coordinates": [
          9.7678687,
          4.0510564
        ]
      },
      "properties": {
        "sitename": "Douala",
        "Forecast": "DoS Missions"
      }
    },
    {
      "type": "Feature",
      "geometry": {
        "type": "Point",
        "coordinates": [
          55.309165,
          25.258481
        ]
      },
      "properties": {
        "sitename": "Dubai",
        "Forecast": "DoS Missions"
      }
    },
    {
      "type": "Feature",
      "geometry": {
        "type": "Point",
        "coordinates": [
          -6.2603097,
          53.3498053
        ]
      },
      "properties": {
        "sitename": "Dublin",
        "Forecast": "DoS Missions"
      }
    },
    {
      "type": "Feature",
      "geometry": {
        "type": "Point",
        "coordinates": [
          31.0218404,
          -29.8586804
        ]
      },
      "properties": {
        "sitename": "Durban",
        "Forecast": "DoS Missions"
      }
    },
    {
      "type": "Feature",
      "geometry": {
        "type": "Point",
        "coordinates": [
          68.775917,
          38.557671
        ]
      },
      "properties": {
        "sitename": "Dushanbe",
        "Forecast": "DoS Missions"
      }
    },
    {
      "type": "Feature",
      "geometry": {
        "type": "Point",
        "coordinates": [
          6.7734556,
          51.2277411
        ]
      },
      "properties": {
        "sitename": "Dusseldorf",
        "Forecast": "DoS Missions"
      }
    },
    {
      "type": "Feature",
      "geometry": {
        "type": "Point",
        "coordinates": [
          -3.188267,
          55.953252
        ]
      },
      "properties": {
        "sitename": "Edinburgh",
        "Forecast": "DoS Missions"
      }
    },
    {
      "type": "Feature",
      "geometry": {
        "type": "Point",
        "coordinates": [
          11.2558136,
          43.7695604
        ]
      },
      "properties": {
        "sitename": "Florence",
        "Forecast": "DoS Missions"
      }
    },
    {
      "type": "Feature",
      "geometry": {
        "type": "Point",
        "coordinates": [
          8.6821267,
          50.1109221
        ]
      },
      "properties": {
        "sitename": "Frankfurt_am_Main",
        "Forecast": "DoS Missions"
      }
    },
    {
      "type": "Feature",
      "geometry": {
        "type": "Point",
        "coordinates": [
          -13.2317225,
          8.4656765
        ]
      },
      "properties": {
        "sitename": "Freetown",
        "Forecast": "DoS Missions"
      }
    },
    {
      "type": "Feature",
      "geometry": {
        "type": "Point",
        "coordinates": [
          130.4016888,
          33.5901838
        ]
      },
      "properties": {
        "sitename": "Fukuoka",
        "Forecast": "DoS Missions"
      }
    },
    {
      "type": "Feature",
      "geometry": {
        "type": "Point",
        "coordinates": [
          25.9231471,
          -24.6282079
        ]
      },
      "properties": {
        "sitename": "Gaborone",
        "Forecast": "DoS Missions"
      }
    },
    {
      "type": "Feature",
      "geometry": {
        "type": "Point",
        "coordinates": [
          37.37811,
          37.065953
        ]
      },
      "properties": {
        "sitename": "Gaziantep",
        "Forecast": "DoS Missions"
      }
    },
    {
      "type": "Feature",
      "geometry": {
        "type": "Point",
        "coordinates": [
          6.1431577,
          46.2043907
        ]
      },
      "properties": {
        "sitename": "Geneva",
        "Forecast": "DoS Missions"
      }
    },
    {
      "type": "Feature",
      "geometry": {
        "type": "Point",
        "coordinates": [
          -58.1551255,
          6.8012793
        ]
      },
      "properties": {
        "sitename": "Georgetown",
        "Forecast": "DoS Missions"
      }
    },
    {
      "type": "Feature",
      "geometry": {
        "type": "Point",
        "coordinates": [
          -103.3496092,
          20.6596988
        ]
      },
      "properties": {
        "sitename": "Guadalajara",
        "Forecast": "DoS Missions"
      }
    },
    {
      "type": "Feature",
      "geometry": {
        "type": "Point",
        "coordinates": [
          113.318088,
          23.116785
        ]
      },
      "properties": {
        "sitename": "Guangzhou",
        "Forecast": "DoS Missions"
      }
    },
    {
      "type": "Feature",
      "geometry": {
        "type": "Point",
        "coordinates": [
          -90.522408,
          14.989397
        ]
      },
      "properties": {
        "sitename": "Guatemala_City",
        "Forecast": "DoS Missions"
      }
    },
    {
      "type": "Feature",
      "geometry": {
        "type": "Point",
        "coordinates": [
          -79.8890662,
          -2.1894128
        ]
      },
      "properties": {
        "sitename": "Guayaquil",
        "Forecast": "DoS Missions"
      }
    },
    {
      "type": "Feature",
      "geometry": {
        "type": "Point",
        "coordinates": [
          -63.573689,
          44.647175
        ]
      },
      "properties": {
        "sitename": "Halifax",
        "Forecast": "DoS Missions"
      }
    },
    {
      "type": "Feature",
      "geometry": {
        "type": "Point",
        "coordinates": [
          9.9936819,
          53.5510846
        ]
      },
      "properties": {
        "sitename": "Hamburg",
        "Forecast": "DoS Missions"
      }
    },
    {
      "type": "Feature",
      "geometry": {
        "type": "Point",
        "coordinates": [
          -64.7858887,
          32.2945837
        ]
      },
      "properties": {
        "sitename": "Hamilton",
        "Forecast": "DoS Missions"
      }
    },
    {
      "type": "Feature",
      "geometry": {
        "type": "Point",
        "coordinates": [
          105.818806,
          21.021939
        ]
      },
      "properties": {
        "sitename": "Hanoi",
        "Forecast": "DoS Missions"
      }
    },
    {
      "type": "Feature",
      "geometry": {
        "type": "Point",
        "coordinates": [
          31.0492259,
          -17.8216288
        ]
      },
      "properties": {
        "sitename": "Harare",
        "Forecast": "DoS Missions"
      }
    },
    {
      "type": "Feature",
      "geometry": {
        "type": "Point",
        "coordinates": [
          -82.3665956,
          23.1135925
        ]
      },
      "properties": {
        "sitename": "Havana",
        "Forecast": "DoS Missions"
      }
    },
    {
      "type": "Feature",
      "geometry": {
        "type": "Point",
        "coordinates": [
          24.9383791,
          60.1698557
        ]
      },
      "properties": {
        "sitename": "Helsinki",
        "Forecast": "DoS Missions"
      }
    },
    {
      "type": "Feature",
      "geometry": {
        "type": "Point",
        "coordinates": [
          -110.9559192,
          29.0729673
        ]
      },
      "properties": {
        "sitename": "Hermosillo",
        "Forecast": "DoS Missions"
      }
    },
    {
      "type": "Feature",
      "geometry": {
        "type": "Point",
        "coordinates": [
          106.700035,
          10.782773
        ]
      },
      "properties": {
        "sitename": "Ho_Chi_Minh_City",
        "Forecast": "DoS Missions"
      }
    },
    {
      "type": "Feature",
      "geometry": {
        "type": "Point",
        "coordinates": [
          114.1693611,
          22.3193039
        ]
      },
      "properties": {
        "sitename": "Hong_Kong",
        "Forecast": "DoS Missions"
      }
    },
    {
      "type": "Feature",
      "geometry": {
        "type": "Point",
        "coordinates": [
          78.45636,
          17.38405
        ]
      },
      "properties": {
        "sitename": "Hyderabad",
        "Forecast": "DoS Missions"
      }
    },
    {
      "type": "Feature",
      "geometry": {
        "type": "Point",
        "coordinates": [
          73.11602,
          33.725614
        ]
      },
      "properties": {
        "sitename": "Islamabad",
        "Forecast": "DoS Missions"
      }
    },
    {
      "type": "Feature",
      "geometry": {
        "type": "Point",
        "coordinates": [
          28.9783589,
          41.0082376
        ]
      },
      "properties": {
        "sitename": "Istanbul",
        "Forecast": "DoS Missions"
      }
    },
    {
      "type": "Feature",
      "geometry": {
        "type": "Point",
        "coordinates": [
          106.793244,
          -6.236704
        ]
      },
      "properties": {
        "sitename": "Jakarta",
        "Forecast": "DoS Missions"
      }
    },
    {
      "type": "Feature",
      "geometry": {
        "type": "Point",
        "coordinates": [
          39.172989,
          21.543486
        ]
      },
      "properties": {
        "sitename": "Jeddah",
        "Forecast": "DoS Missions"
      }
    },
    {
      "type": "Feature",
      "geometry": {
        "type": "Point",
        "coordinates": [
          35.21371,
          31.768319
        ]
      },
      "properties": {
        "sitename": "Jerusalem",
        "Forecast": "DoS Missions"
      }
    },
    {
      "type": "Feature",
      "geometry": {
        "type": "Point",
        "coordinates": [
          28.0473051,
          -26.2041028
        ]
      },
      "properties": {
        "sitename": "Johannesburg",
        "Forecast": "DoS Missions"
      }
    },
    {
      "type": "Feature",
      "geometry": {
        "type": "Point",
        "coordinates": [
          31.57125,
          4.859363
        ]
      },
      "properties": {
        "sitename": "Juba",
        "Forecast": "DoS Missions"
      }
    },
    {
      "type": "Feature",
      "geometry": {
        "type": "Point",
        "coordinates": [
          32.591554,
          0.300225
        ]
      },
      "properties": {
        "sitename": "Kampala",
        "Forecast": "DoS Missions"
      }
    },
    {
      "type": "Feature",
      "geometry": {
        "type": "Point",
        "coordinates": [
          120.3014353,
          22.6272784
        ]
      },
      "properties": {
        "sitename": "Kaohsiung",
        "Forecast": "DoS Missions"
      }
    },
    {
      "type": "Feature",
      "geometry": {
        "type": "Point",
        "coordinates": [
          67.0091,
          24.8415
        ]
      },
      "properties": {
        "sitename": "Karachi",
        "Forecast": "DoS Missions"
      }
    },
    {
      "type": "Feature",
      "geometry": {
        "type": "Point",
        "coordinates": [
          85.315703,
          27.712464
        ]
      },
      "properties": {
        "sitename": "Kathmandu",
        "Forecast": "DoS Missions"
      }
    },
    {
      "type": "Feature",
      "geometry": {
        "type": "Point",
        "coordinates": [
          32.5598994,
          15.5006544
        ]
      },
      "properties": {
        "sitename": "Khartoum",
        "Forecast": "DoS Missions"
      }
    },
    {
      "type": "Feature",
      "geometry": {
        "type": "Point",
        "coordinates": [
          30.077952,
          -1.936231
        ]
      },
      "properties": {
        "sitename": "Kigali",
        "Forecast": "DoS Missions"
      }
    },
    {
      "type": "Feature",
      "geometry": {
        "type": "Point",
        "coordinates": [
          -76.8099041,
          18.0178743
        ]
      },
      "properties": {
        "sitename": "Kingston",
        "Forecast": "DoS Missions"
      }
    },
    {
      "type": "Feature",
      "geometry": {
        "type": "Point",
        "coordinates": [
          15.2662931,
          -4.4419311
        ]
      },
      "properties": {
        "sitename": "Kinshasa",
        "Forecast": "DoS Missions"
      }
    },
    {
      "type": "Feature",
      "geometry": {
        "type": "Point",
        "coordinates": [
          44.3798895,
          35.4666329
        ]
      },
      "properties": {
        "sitename": "Kirkuk",
        "Forecast": "DoS Missions"
      }
    },
    {
      "type": "Feature",
      "geometry": {
        "type": "Point",
        "coordinates": [
          88.36304,
          22.56263
        ]
      },
      "properties": {
        "sitename": "Kolkata",
        "Forecast": "DoS Missions"
      }
    },
    {
      "type": "Feature",
      "geometry": {
        "type": "Point",
        "coordinates": [
          19.9449799,
          50.0646501
        ]
      },
      "properties": {
        "sitename": "Krakow",
        "Forecast": "DoS Missions"
      }
    },
    {
      "type": "Feature",
      "geometry": {
        "type": "Point",
        "coordinates": [
          101.72145,
          3.15675
        ]
      },
      "properties": {
        "sitename": "Kuala_Lumpur",
        "Forecast": "DoS Missions"
      }
    },
    {
      "type": "Feature",
      "geometry": {
        "type": "Point",
        "coordinates": [
          48.047679,
          29.292317
        ]
      },
      "properties": {
        "sitename": "Kuwait_City",
        "Forecast": "DoS Missions"
      }
    },
    {
      "type": "Feature",
      "geometry": {
        "type": "Point",
        "coordinates": [
          30.5234,
          50.4501
        ]
      },
      "properties": {
        "sitename": "Kyiv",
        "Forecast": "DoS Missions"
      }
    },
    {
      "type": "Feature",
      "geometry": {
        "type": "Point",
        "coordinates": [
          -68.1192936,
          -16.489689
        ]
      },
      "properties": {
        "sitename": "La_Paz",
        "Forecast": "DoS Missions"
      }
    },
    {
      "type": "Feature",
      "geometry": {
        "type": "Point",
        "coordinates": [
          3.406815,
          6.440483
        ]
      },
      "properties": {
        "sitename": "Lagos",
        "Forecast": "DoS Missions"
      }
    },
    {
      "type": "Feature",
      "geometry": {
        "type": "Point",
        "coordinates": [
          74.33589,
          31.560078
        ]
      },
      "properties": {
        "sitename": "Lahore",
        "Forecast": "DoS Missions"
      }
    },
    {
      "type": "Feature",
      "geometry": {
        "type": "Point",
        "coordinates": [
          12.3730747,
          51.3396955
        ]
      },
      "properties": {
        "sitename": "Leipzig",
        "Forecast": "DoS Missions"
      }
    },
    {
      "type": "Feature",
      "geometry": {
        "type": "Point",
        "coordinates": [
          9.4672676,
          0.4161976
        ]
      },
      "properties": {
        "sitename": "Libreville",
        "Forecast": "DoS Missions"
      }
    },
    {
      "type": "Feature",
      "geometry": {
        "type": "Point",
        "coordinates": [
          33.7741195,
          -13.9626121
        ]
      },
      "properties": {
        "sitename": "Lilongwe",
        "Forecast": "DoS Missions"
      }
    },
    {
      "type": "Feature",
      "geometry": {
        "type": "Point",
        "coordinates": [
          -77.042754,
          -12.0463731
        ]
      },
      "properties": {
        "sitename": "Lima",
        "Forecast": "DoS Missions"
      }
    },
    {
      "type": "Feature",
      "geometry": {
        "type": "Point",
        "coordinates": [
          -9.1393366,
          38.7222524
        ]
      },
      "properties": {
        "sitename": "Lisbon",
        "Forecast": "DoS Missions"
      }
    },
    {
      "type": "Feature",
      "geometry": {
        "type": "Point",
        "coordinates": [
          14.5057515,
          46.0569465
        ]
      },
      "properties": {
        "sitename": "Ljubljana",
        "Forecast": "DoS Missions"
      }
    },
    {
      "type": "Feature",
      "geometry": {
        "type": "Point",
        "coordinates": [
          1.214166,
          6.185167
        ]
      },
      "properties": {
        "sitename": "Lome",
        "Forecast": "DoS Missions"
      }
    },
    {
      "type": "Feature",
      "geometry": {
        "type": "Point",
        "coordinates": [
          -0.1275862,
          51.5072178
        ]
      },
      "properties": {
        "sitename": "London",
        "Forecast": "DoS Missions"
      }
    },
    {
      "type": "Feature",
      "geometry": {
        "type": "Point",
        "coordinates": [
          13.2301756,
          -8.8146556
        ]
      },
      "properties": {
        "sitename": "Luanda",
        "Forecast": "DoS Missions"
      }
    },
    {
      "type": "Feature",
      "geometry": {
        "type": "Point",
        "coordinates": [
          28.3228165,
          -15.3875259
        ]
      },
      "properties": {
        "sitename": "Lusaka",
        "Forecast": "DoS Missions"
      }
    },
    {
      "type": "Feature",
      "geometry": {
        "type": "Point",
        "coordinates": [
          6.1319346,
          49.611621
        ]
      },
      "properties": {
        "sitename": "Luxembourg_City",
        "Forecast": "DoS Missions"
      }
    },
    {
      "type": "Feature",
      "geometry": {
        "type": "Point",
        "coordinates": [
          4.835659,
          45.764043
        ]
      },
      "properties": {
        "sitename": "Lyon",
        "Forecast": "DoS Missions"
      }
    },
    {
      "type": "Feature",
      "geometry": {
        "type": "Point",
        "coordinates": [
          -3.7037902,
          40.4167754
        ]
      },
      "properties": {
        "sitename": "Madrid",
        "Forecast": "DoS Missions"
      }
    },
    {
      "type": "Feature",
      "geometry": {
        "type": "Point",
        "coordinates": [
          8.7821344,
          3.7549606
        ]
      },
      "properties": {
        "sitename": "Malabo",
        "Forecast": "DoS Missions"
      }
    },
    {
      "type": "Feature",
      "geometry": {
        "type": "Point",
        "coordinates": [
          -86.2361744,
          12.1149926
        ]
      },
      "properties": {
        "sitename": "Managua",
        "Forecast": "DoS Missions"
      }
    },
    {
      "type": "Feature",
      "geometry": {
        "type": "Point",
        "coordinates": [
          50.570833,
          26.204697
        ]
      },
      "properties": {
        "sitename": "Manama",
        "Forecast": "DoS Missions"
      }
    },
    {
      "type": "Feature",
      "geometry": {
        "type": "Point",
        "coordinates": [
          120.9778,
          14.57711
        ]
      },
      "properties": {
        "sitename": "Manila",
        "Forecast": "DoS Missions"
      }
    },
    {
      "type": "Feature",
      "geometry": {
        "type": "Point",
        "coordinates": [
          32.62835,
          -25.90382
        ]
      },
      "properties": {
        "sitename": "Maputo",
        "Forecast": "DoS Missions"
      }
    },
    {
      "type": "Feature",
      "geometry": {
        "type": "Point",
        "coordinates": [
          5.36978,
          43.296482
        ]
      },
      "properties": {
        "sitename": "Marseille",
        "Forecast": "DoS Missions"
      }
    },
    {
      "type": "Feature",
      "geometry": {
        "type": "Point",
        "coordinates": [
          27.4869229,
          -29.3150767
        ]
      },
      "properties": {
        "sitename": "Maseru",
        "Forecast": "DoS Missions"
      }
    },
    {
      "type": "Feature",
      "geometry": {
        "type": "Point",
        "coordinates": [
          -97.5027376,
          25.8690294
        ]
      },
      "properties": {
        "sitename": "Matamoros",
        "Forecast": "DoS Missions"
      }
    },
    {
      "type": "Feature",
      "geometry": {
        "type": "Point",
        "coordinates": [
          31.1366715,
          -26.3054482
        ]
      },
      "properties": {
        "sitename": "Mbabane",
        "Forecast": "DoS Missions"
      }
    },
    {
      "type": "Feature",
      "geometry": {
        "type": "Point",
        "coordinates": [
          98.6722227,
          3.5951956
        ]
      },
      "properties": {
        "sitename": "Medan",
        "Forecast": "DoS Missions"
      }
    },
    {
      "type": "Feature",
      "geometry": {
        "type": "Point",
        "coordinates": [
          144.9630576,
          -37.8136276
        ]
      },
      "properties": {
        "sitename": "Melbourne",
        "Forecast": "DoS Missions"
      }
    },
    {
      "type": "Feature",
      "geometry": {
        "type": "Point",
        "coordinates": [
          -89.5925857,
          20.9673702
        ]
      },
      "properties": {
        "sitename": "Merida",
        "Forecast": "DoS Missions"
      }
    },
    {
      "type": "Feature",
      "geometry": {
        "type": "Point",
        "coordinates": [
          -99.1522,
          19.4116
        ]
      },
      "properties": {
        "sitename": "Mexico_City",
        "Forecast": "DoS Missions"
      }
    },
    {
      "type": "Feature",
      "geometry": {
        "type": "Point",
        "coordinates": [
          9.189982,
          45.4642035
        ]
      },
      "properties": {
        "sitename": "Milan",
        "Forecast": "DoS Missions"
      }
    },
    {
      "type": "Feature",
      "geometry": {
        "type": "Point",
        "coordinates": [
          27.558972,
          53.9006011
        ]
      },
      "properties": {
        "sitename": "Minsk",
        "Forecast": "DoS Missions"
      }
    },
    {
      "type": "Feature",
      "geometry": {
        "type": "Point",
        "coordinates": [
          45.3181623,
          2.0469343
        ]
      },
      "properties": {
        "sitename": "Mogadishu",
        "Forecast": "DoS Missions"
      }
    },
    {
      "type": "Feature",
      "geometry": {
        "type": "Point",
        "coordinates": [
          -10.8073698,
          6.3156068
        ]
      },
      "properties": {
        "sitename": "Monrovia",
        "Forecast": "DoS Missions"
      }
    },
    {
      "type": "Feature",
      "geometry": {
        "type": "Point",
        "coordinates": [
          -100.3161126,
          25.6866142
        ]
      },
      "properties": {
        "sitename": "Monterrey",
        "Forecast": "DoS Missions"
      }
    },
    {
      "type": "Feature",
      "geometry": {
        "type": "Point",
        "coordinates": [
          -56.1645314,
          -34.9011127
        ]
      },
      "properties": {
        "sitename": "Montevideo",
        "Forecast": "DoS Missions"
      }
    },
    {
      "type": "Feature",
      "geometry": {
        "type": "Point",
        "coordinates": [
          -73.663913,
          45.502648
        ]
      },
      "properties": {
        "sitename": "Montreal",
        "Forecast": "DoS Missions"
      }
    },
    {
      "type": "Feature",
      "geometry": {
        "type": "Point",
        "coordinates": [
          37.6172999,
          55.755826
        ]
      },
      "properties": {
        "sitename": "Moscow",
        "Forecast": "DoS Missions"
      }
    },
    {
      "type": "Feature",
      "geometry": {
        "type": "Point",
        "coordinates": [
          17.8077578,
          43.3437748
        ]
      },
      "properties": {
        "sitename": "Mostar",
        "Forecast": "DoS Missions"
      }
    },
    {
      "type": "Feature",
      "geometry": {
        "type": "Point",
        "coordinates": [
          72.88261,
          19.07283
        ]
      },
      "properties": {
        "sitename": "Mumbai",
        "Forecast": "DoS Missions"
      }
    },
    {
      "type": "Feature",
      "geometry": {
        "type": "Point",
        "coordinates": [
          11.5819805,
          48.1351253
        ]
      },
      "properties": {
        "sitename": "Munchen",
        "Forecast": "DoS Missions"
      }
    },
    {
      "type": "Feature",
      "geometry": {
        "type": "Point",
        "coordinates": [
          58.3828717,
          23.5880307
        ]
      },
      "properties": {
        "sitename": "Muscat",
        "Forecast": "DoS Missions"
      }
    },
    {
      "type": "Feature",
      "geometry": {
        "type": "Point",
        "coordinates": [
          136.9065571,
          35.1814506
        ]
      },
      "properties": {
        "sitename": "Nagoya",
        "Forecast": "DoS Missions"
      }
    },
    {
      "type": "Feature",
      "geometry": {
        "type": "Point",
        "coordinates": [
          127.6790208,
          26.2125758
        ]
      },
      "properties": {
        "sitename": "Naha",
        "Forecast": "DoS Missions"
      }
    },
    {
      "type": "Feature",
      "geometry": {
        "type": "Point",
        "coordinates": [
          36.81732,
          -1.23437
        ]
      },
      "properties": {
        "sitename": "Nairobi",
        "Forecast": "DoS Missions"
      }
    },
    {
      "type": "Feature",
      "geometry": {
        "type": "Point",
        "coordinates": [
          14.26812,
          40.8517983
        ]
      },
      "properties": {
        "sitename": "Naples",
        "Forecast": "DoS Missions"
      }
    },
    {
      "type": "Feature",
      "geometry": {
        "type": "Point",
        "coordinates": [
          -77.3503609,
          25.0443312
        ]
      },
      "properties": {
        "sitename": "Nassau",
        "Forecast": "DoS Missions"
      }
    },
    {
      "type": "Feature",
      "geometry": {
        "type": "Point",
        "coordinates": [
          96.0785104,
          19.7633057
        ]
      },
      "properties": {
        "sitename": "Nay_Pyi_Taw",
        "Forecast": "DoS Missions"
      }
    },
    {
      "type": "Feature",
      "geometry": {
        "type": "Point",
        "coordinates": [
          15.0557415,
          12.1348457
        ]
      },
      "properties": {
        "sitename": "N_Djamena",
        "Forecast": "DoS Missions"
      }
    },
    {
      "type": "Feature",
      "geometry": {
        "type": "Point",
        "coordinates": [
          77.22445,
          28.63576
        ]
      },
      "properties": {
        "sitename": "New_Delhi",
        "Forecast": "DoS Missions"
      }
    },
    {
      "type": "Feature",
      "geometry": {
        "type": "Point",
        "coordinates": [
          -73.8933,
          40.7269
        ]
      },
      "properties": {
        "sitename": "New_York",
        "Forecast": "DoS Missions"
      }
    },
    {
      "type": "Feature",
      "geometry": {
        "type": "Point",
        "coordinates": [
          2.1253854,
          13.5115963
        ]
      },
      "properties": {
        "sitename": "Niamey",
        "Forecast": "DoS Missions"
      }
    },
    {
      "type": "Feature",
      "geometry": {
        "type": "Point",
        "coordinates": [
          33.3822764,
          35.1855659
        ]
      },
      "properties": {
        "sitename": "Nicosia",
        "Forecast": "DoS Missions"
      }
    },
    {
      "type": "Feature",
      "geometry": {
        "type": "Point",
        "coordinates": [
          -110.951508,
          31.291294
        ]
      },
      "properties": {
        "sitename": "Nogales",
        "Forecast": "DoS Missions"
      }
    },
    {
      "type": "Feature",
      "geometry": {
        "type": "Point",
        "coordinates": [
          -15.9582372,
          18.0735299
        ]
      },
      "properties": {
        "sitename": "Nouakchott",
        "Forecast": "DoS Missions"
      }
    },
    {
      "type": "Feature",
      "geometry": {
        "type": "Point",
        "coordinates": [
          -99.549573,
          27.4779362
        ]
      },
      "properties": {
        "sitename": "Nuevo_Laredo",
        "Forecast": "DoS Missions"
      }
    },
    {
      "type": "Feature",
      "geometry": {
        "type": "Point",
        "coordinates": [
          71.467217,
          51.125287
        ]
      },
      "properties": {
        "sitename": "Nur_Sultan",
        "Forecast": "DoS Missions"
      }
    },
    {
      "type": "Feature",
      "geometry": {
        "type": "Point",
        "coordinates": [
          -51.6941381,
          64.1814099
        ]
      },
      "properties": {
        "sitename": "Nuuk",
        "Forecast": "DoS Missions"
      }
    },
    {
      "type": "Feature",
      "geometry": {
        "type": "Point",
        "coordinates": [
          135.5022535,
          34.6937249
        ]
      },
      "properties": {
        "sitename": "Osaka",
        "Forecast": "DoS Missions"
      }
    },
    {
      "type": "Feature",
      "geometry": {
        "type": "Point",
        "coordinates": [
          10.7522454,
          59.9138688
        ]
      },
      "properties": {
        "sitename": "Oslo",
        "Forecast": "DoS Missions"
      }
    },
    {
      "type": "Feature",
      "geometry": {
        "type": "Point",
        "coordinates": [
          -75.67599,
          45.434333
        ]
      },
      "properties": {
        "sitename": "Ottawa",
        "Forecast": "DoS Missions"
      }
    },
    {
      "type": "Feature",
      "geometry": {
        "type": "Point",
        "coordinates": [
          -1.497184,
          12.304907
        ]
      },
      "properties": {
        "sitename": "Ouagadougou",
        "Forecast": "DoS Missions"
      }
    },
    {
      "type": "Feature",
      "geometry": {
        "type": "Point",
        "coordinates": [
          -79.5198696,
          8.9823792
        ]
      },
      "properties": {
        "sitename": "Panama_City",
        "Forecast": "DoS Missions"
      }
    },
    {
      "type": "Feature",
      "geometry": {
        "type": "Point",
        "coordinates": [
          -55.2038278,
          5.8520355
        ]
      },
      "properties": {
        "sitename": "Paramaribo",
        "Forecast": "DoS Missions"
      }
    },
    {
      "type": "Feature",
      "geometry": {
        "type": "Point",
        "coordinates": [
          2.3522219,
          48.856614
        ]
      },
      "properties": {
        "sitename": "Paris",
        "Forecast": "DoS Missions"
      }
    },
    {
      "type": "Feature",
      "geometry": {
        "type": "Point",
        "coordinates": [
          115.861309,
          -31.9523123
        ]
      },
      "properties": {
        "sitename": "Perth",
        "Forecast": "DoS Missions"
      }
    },
    {
      "type": "Feature",
      "geometry": {
        "type": "Point",
        "coordinates": [
          71.53775,
          34.005852
        ]
      },
      "properties": {
        "sitename": "Peshawar",
        "Forecast": "DoS Missions"
      }
    },
    {
      "type": "Feature",
      "geometry": {
        "type": "Point",
        "coordinates": [
          104.9282099,
          11.5563738
        ]
      },
      "properties": {
        "sitename": "Phnom_Penh",
        "Forecast": "DoS Missions"
      }
    },
    {
      "type": "Feature",
      "geometry": {
        "type": "Point",
        "coordinates": [
          19.2593642,
          42.4304196
        ]
      },
      "properties": {
        "sitename": "Podgorica",
        "Forecast": "DoS Missions"
      }
    },
    {
      "type": "Feature",
      "geometry": {
        "type": "Point",
        "coordinates": [
          -25.6686725,
          37.7394207
        ]
      },
      "properties": {
        "sitename": "Ponta_Delgada",
        "Forecast": "DoS Missions"
      }
    },
    {
      "type": "Feature",
      "geometry": {
        "type": "Point",
        "coordinates": [
          57.5012222,
          -20.1608912
        ]
      },
      "properties": {
        "sitename": "Port_Louis",
        "Forecast": "DoS Missions"
      }
    },
    {
      "type": "Feature",
      "geometry": {
        "type": "Point",
        "coordinates": [
          147.1802671,
          -9.4438004
        ]
      },
      "properties": {
        "sitename": "Port_Moresby",
        "Forecast": "DoS Missions"
      }
    },
    {
      "type": "Feature",
      "geometry": {
        "type": "Point",
        "coordinates": [
          -61.5085625,
          10.6603196
        ]
      },
      "properties": {
        "sitename": "Port_of_Spain",
        "Forecast": "DoS Missions"
      }
    },
    {
      "type": "Feature",
      "geometry": {
        "type": "Point",
        "coordinates": [
          -72.3074326,
          18.594395
        ]
      },
      "properties": {
        "sitename": "Port_au_Prince",
        "Forecast": "DoS Missions"
      }
    },
    {
      "type": "Feature",
      "geometry": {
        "type": "Point",
        "coordinates": [
          -51.2089887,
          -30.0368176
        ]
      },
      "properties": {
        "sitename": "Porto_Alegre",
        "Forecast": "DoS Missions"
      }
    },
    {
      "type": "Feature",
      "geometry": {
        "type": "Point",
        "coordinates": [
          14.4378005,
          50.0755381
        ]
      },
      "properties": {
        "sitename": "Prague",
        "Forecast": "DoS Missions"
      }
    },
    {
      "type": "Feature",
      "geometry": {
        "type": "Point",
        "coordinates": [
          -23.5133267,
          14.93305
        ]
      },
      "properties": {
        "sitename": "Praia",
        "Forecast": "DoS Missions"
      }
    },
    {
      "type": "Feature",
      "geometry": {
        "type": "Point",
        "coordinates": [
          28.2292712,
          -25.7478676
        ]
      },
      "properties": {
        "sitename": "Pretoria",
        "Forecast": "DoS Missions"
      }
    },
    {
      "type": "Feature",
      "geometry": {
        "type": "Point",
        "coordinates": [
          21.139953,
          42.655959
        ]
      },
      "properties": {
        "sitename": "Pristina",
        "Forecast": "DoS Missions"
      }
    },
    {
      "type": "Feature",
      "geometry": {
        "type": "Point",
        "coordinates": [
          -71.2572,
          46.8615
        ]
      },
      "properties": {
        "sitename": "Quebec",
        "Forecast": "DoS Missions"
      }
    },
    {
      "type": "Feature",
      "geometry": {
        "type": "Point",
        "coordinates": [
          -78.4678382,
          -0.1806532
        ]
      },
      "properties": {
        "sitename": "Quito",
        "Forecast": "DoS Missions"
      }
    },
    {
      "type": "Feature",
      "geometry": {
        "type": "Point",
        "coordinates": [
          -6.8498129,
          33.9715904
        ]
      },
      "properties": {
        "sitename": "Rabat",
        "Forecast": "DoS Missions"
      }
    },
    {
      "type": "Feature",
      "geometry": {
        "type": "Point",
        "coordinates": [
          96.1445,
          16.8256
        ]
      },
      "properties": {
        "sitename": "Rangoon",
        "Forecast": "DoS Missions"
      }
    },
    {
      "type": "Feature",
      "geometry": {
        "type": "Point",
        "coordinates": [
          -34.8829629,
          -8.0577401
        ]
      },
      "properties": {
        "sitename": "Recife",
        "Forecast": "DoS Missions"
      }
    },
    {
      "type": "Feature",
      "geometry": {
        "type": "Point",
        "coordinates": [
          -1.6777926,
          48.117266
        ]
      },
      "properties": {
        "sitename": "Rennes",
        "Forecast": "DoS Missions"
      }
    },
    {
      "type": "Feature",
      "geometry": {
        "type": "Point",
        "coordinates": [
          -21.9426354,
          64.146582
        ]
      },
      "properties": {
        "sitename": "Reykjavik",
        "Forecast": "DoS Missions"
      }
    },
    {
      "type": "Feature",
      "geometry": {
        "type": "Point",
        "coordinates": [
          24.1051865,
          56.9496487
        ]
      },
      "properties": {
        "sitename": "Riga",
        "Forecast": "DoS Missions"
      }
    },
    {
      "type": "Feature",
      "geometry": {
        "type": "Point",
        "coordinates": [
          -43.1728965,
          -22.9068467
        ]
      },
      "properties": {
        "sitename": "Rio_de_Janeiro",
        "Forecast": "DoS Missions"
      }
    },
    {
      "type": "Feature",
      "geometry": {
        "type": "Point",
        "coordinates": [
          46.6752957,
          24.7135517
        ]
      },
      "properties": {
        "sitename": "Riyadh",
        "Forecast": "DoS Missions"
      }
    },
    {
      "type": "Feature",
      "geometry": {
        "type": "Point",
        "coordinates": [
          12.4963655,
          41.9027835
        ]
      },
      "properties": {
        "sitename": "Rome",
        "Forecast": "DoS Missions"
      }
    },
    {
      "type": "Feature",
      "geometry": {
        "type": "Point",
        "coordinates": [
          -61.7487996,
          12.0560975
        ]
      },
      "properties": {
        "sitename": "Saint_George_s",
        "Forecast": "DoS Missions"
      }
    },
    {
      "type": "Feature",
      "geometry": {
        "type": "Point",
        "coordinates": [
          30.3609096,
          59.9310584
        ]
      },
      "properties": {
        "sitename": "Saint_Petersburg",
        "Forecast": "DoS Missions"
      }
    },
    {
      "type": "Feature",
      "geometry": {
        "type": "Point",
        "coordinates": [
          -84.142878,
          9.949488
        ]
      },
      "properties": {
        "sitename": "San_Jose",
        "Forecast": "DoS Missions"
      }
    },
    {
      "type": "Feature",
      "geometry": {
        "type": "Point",
        "coordinates": [
          -89.2181911,
          13.6929403
        ]
      },
      "properties": {
        "sitename": "San_Salvador",
        "Forecast": "DoS Missions"
      }
    },
    {
      "type": "Feature",
      "geometry": {
        "type": "Point",
        "coordinates": [
          -70.6692655,
          -33.4488897
        ]
      },
      "properties": {
        "sitename": "Santiago",
        "Forecast": "DoS Missions"
      }
    },
    {
      "type": "Feature",
      "geometry": {
        "type": "Point",
        "coordinates": [
          -69.9312117,
          18.4860575
        ]
      },
      "properties": {
        "sitename": "Santo_Domingo",
        "Forecast": "DoS Missions"
      }
    },
    {
      "type": "Feature",
      "geometry": {
        "type": "Point",
        "coordinates": [
          -46.696558,
          -23.629158
        ]
      },
      "properties": {
        "sitename": "Sao_Paulo",
        "Forecast": "DoS Missions"
      }
    },
    {
      "type": "Feature",
      "geometry": {
        "type": "Point",
        "coordinates": [
          141.3544507,
          43.0617713
        ]
      },
      "properties": {
        "sitename": "Sapporo",
        "Forecast": "DoS Missions"
      }
    },
    {
      "type": "Feature",
      "geometry": {
        "type": "Point",
        "coordinates": [
          18.398205,
          43.856665
        ]
      },
      "properties": {
        "sitename": "Sarajevo",
        "Forecast": "DoS Missions"
      }
    },
    {
      "type": "Feature",
      "geometry": {
        "type": "Point",
        "coordinates": [
          126.9779692,
          37.566535
        ]
      },
      "properties": {
        "sitename": "Seoul",
        "Forecast": "DoS Missions"
      }
    },
    {
      "type": "Feature",
      "geometry": {
        "type": "Point",
        "coordinates": [
          121.448226,
          31.210683
        ]
      },
      "properties": {
        "sitename": "Shanghai",
        "Forecast": "DoS Missions"
      }
    },
    {
      "type": "Feature",
      "geometry": {
        "type": "Point",
        "coordinates": [
          123.424434,
          41.78351
        ]
      },
      "properties": {
        "sitename": "Shenyang",
        "Forecast": "DoS Missions"
      }
    },
    {
      "type": "Feature",
      "geometry": {
        "type": "Point",
        "coordinates": [
          103.699997,
          1.35735
        ]
      },
      "properties": {
        "sitename": "Singapore_City",
        "Forecast": "DoS Missions"
      }
    },
    {
      "type": "Feature",
      "geometry": {
        "type": "Point",
        "coordinates": [
          21.4254355,
          41.9981294
        ]
      },
      "properties": {
        "sitename": "Skopje",
        "Forecast": "DoS Missions"
      }
    },
    {
      "type": "Feature",
      "geometry": {
        "type": "Point",
        "coordinates": [
          23.3218675,
          42.6977082
        ]
      },
      "properties": {
        "sitename": "Sofia",
        "Forecast": "DoS Missions"
      }
    },
    {
      "type": "Feature",
      "geometry": {
        "type": "Point",
        "coordinates": [
          18.0685808,
          59.3293235
        ]
      },
      "properties": {
        "sitename": "Stockholm",
        "Forecast": "DoS Missions"
      }
    },
    {
      "type": "Feature",
      "geometry": {
        "type": "Point",
        "coordinates": [
          7.7521113,
          48.5734053
        ]
      },
      "properties": {
        "sitename": "Strasbourg",
        "Forecast": "DoS Missions"
      }
    },
    {
      "type": "Feature",
      "geometry": {
        "type": "Point",
        "coordinates": [
          112.7520883,
          -7.2574719
        ]
      },
      "properties": {
        "sitename": "Surabaya",
        "Forecast": "DoS Missions"
      }
    },
    {
      "type": "Feature",
      "geometry": {
        "type": "Point",
        "coordinates": [
          178.4232507,
          -18.1405049
        ]
      },
      "properties": {
        "sitename": "Suva",
        "Forecast": "DoS Missions"
      }
    },
    {
      "type": "Feature",
      "geometry": {
        "type": "Point",
        "coordinates": [
          151.2092955,
          -33.8688197
        ]
      },
      "properties": {
        "sitename": "Sydney",
        "Forecast": "DoS Missions"
      }
    },
    {
      "type": "Feature",
      "geometry": {
        "type": "Point",
        "coordinates": [
          121.5654268,
          25.0329636
        ]
      },
      "properties": {
        "sitename": "Taipei",
        "Forecast": "DoS Missions"
      }
    },
    {
      "type": "Feature",
      "geometry": {
        "type": "Point",
        "coordinates": [
          24.7535747,
          59.4369608
        ]
      },
      "properties": {
        "sitename": "Tallinn",
        "Forecast": "DoS Missions"
      }
    },
    {
      "type": "Feature",
      "geometry": {
        "type": "Point",
        "coordinates": [
          69.2725,
          41.3672
        ]
      },
      "properties": {
        "sitename": "Tashkent",
        "Forecast": "DoS Missions"
      }
    },
    {
      "type": "Feature",
      "geometry": {
        "type": "Point",
        "coordinates": [
          44.827096,
          41.7151377
        ]
      },
      "properties": {
        "sitename": "Tbilisi",
        "Forecast": "DoS Missions"
      }
    },
    {
      "type": "Feature",
      "geometry": {
        "type": "Point",
        "coordinates": [
          -87.1715002,
          14.065049
        ]
      },
      "properties": {
        "sitename": "Tegucigalpa",
        "Forecast": "DoS Missions"
      }
    },
    {
      "type": "Feature",
      "geometry": {
        "type": "Point",
        "coordinates": [
          34.7817676,
          32.0852999
        ]
      },
      "properties": {
        "sitename": "Tel_Aviv",
        "Forecast": "DoS Missions"
      }
    },
    {
      "type": "Feature",
      "geometry": {
        "type": "Point",
        "coordinates": [
          4.3006999,
          52.0704978
        ]
      },
      "properties": {
        "sitename": "The_Hague",
        "Forecast": "DoS Missions"
      }
    },
    {
      "type": "Feature",
      "geometry": {
        "type": "Point",
        "coordinates": [
          22.9444191,
          40.6400629
        ]
      },
      "properties": {
        "sitename": "Thessaloniki",
        "Forecast": "DoS Missions"
      }
    },
    {
      "type": "Feature",
      "geometry": {
        "type": "Point",
        "coordinates": [
          -116.952495,
          32.523366
        ]
      },
      "properties": {
        "sitename": "Tijuana",
        "Forecast": "DoS Missions"
      }
    },
    {
      "type": "Feature",
      "geometry": {
        "type": "Point",
        "coordinates": [
          19.8186982,
          41.3275459
        ]
      },
      "properties": {
        "sitename": "Tirana",
        "Forecast": "DoS Missions"
      }
    },
    {
      "type": "Feature",
      "geometry": {
        "type": "Point",
        "coordinates": [
          139.6503106,
          35.6761919
        ]
      },
      "properties": {
        "sitename": "Tokyo",
        "Forecast": "DoS Missions"
      }
    },
    {
      "type": "Feature",
      "geometry": {
        "type": "Point",
        "coordinates": [
          -79.3891,
          43.645451
        ]
      },
      "properties": {
        "sitename": "Toronto",
        "Forecast": "DoS Missions"
      }
    },
    {
      "type": "Feature",
      "geometry": {
        "type": "Point",
        "coordinates": [
          1.444209,
          43.604652
        ]
      },
      "properties": {
        "sitename": "Toulouse",
        "Forecast": "DoS Missions"
      }
    },
    {
      "type": "Feature",
      "geometry": {
        "type": "Point",
        "coordinates": [
          13.1913383,
          32.8872094
        ]
      },
      "properties": {
        "sitename": "Tripoli",
        "Forecast": "DoS Missions"
      }
    },
    {
      "type": "Feature",
      "geometry": {
        "type": "Point",
        "coordinates": [
          10.1815316,
          36.8064948
        ]
      },
      "properties": {
        "sitename": "Tunis",
        "Forecast": "DoS Missions"
      }
    },
    {
      "type": "Feature",
      "geometry": {
        "type": "Point",
        "coordinates": [
          106.92947,
          47.928385
        ]
      },
      "properties": {
        "sitename": "Ulaanbaatar",
        "Forecast": "DoS Missions"
      }
    },
    {
      "type": "Feature",
      "geometry": {
        "type": "Point",
        "coordinates": [
          14.5145528,
          35.8989085
        ]
      },
      "properties": {
        "sitename": "Valletta",
        "Forecast": "DoS Missions"
      }
    },
    {
      "type": "Feature",
      "geometry": {
        "type": "Point",
        "coordinates": [
          -123.277,
          49.368
        ]
      },
      "properties": {
        "sitename": "Vancouver",
        "Forecast": "DoS Missions"
      }
    },
    {
      "type": "Feature",
      "geometry": {
        "type": "Point",
        "coordinates": [
          12.453389,
          41.902916
        ]
      },
      "properties": {
        "sitename": "Vatican_City",
        "Forecast": "DoS Missions"
      }
    },
    {
      "type": "Feature",
      "geometry": {
        "type": "Point",
        "coordinates": [
          16.3738189,
          48.2081743
        ]
      },
      "properties": {
        "sitename": "Vienna",
        "Forecast": "DoS Missions"
      }
    },
    {
      "type": "Feature",
      "geometry": {
        "type": "Point",
        "coordinates": [
          102.64,
          17.896122
        ]
      },
      "properties": {
        "sitename": "Vientiane",
        "Forecast": "DoS Missions"
      }
    },
    {
      "type": "Feature",
      "geometry": {
        "type": "Point",
        "coordinates": [
          25.2796514,
          54.6871555
        ]
      },
      "properties": {
        "sitename": "Vilnius",
        "Forecast": "DoS Missions"
      }
    },
    {
      "type": "Feature",
      "geometry": {
        "type": "Point",
        "coordinates": [
          131.9112975,
          43.1332484
        ]
      },
      "properties": {
        "sitename": "Vladivostok",
        "Forecast": "DoS Missions"
      }
    },
    {
      "type": "Feature",
      "geometry": {
        "type": "Point",
        "coordinates": [
          21.0122287,
          52.2296756
        ]
      },
      "properties": {
        "sitename": "Warsaw",
        "Forecast": "DoS Missions"
      }
    },
    {
      "type": "Feature",
      "geometry": {
        "type": "Point",
        "coordinates": [
          -77.013176,
          38.921848
        ]
      },
      "properties": {
        "sitename": "Washington",
        "Forecast": "DoS Missions"
      }
    },
    {
      "type": "Feature",
      "geometry": {
        "type": "Point",
        "coordinates": [
          174.7787463,
          -41.2923814
        ]
      },
      "properties": {
        "sitename": "Wellington",
        "Forecast": "DoS Missions"
      }
    },
    {
      "type": "Feature",
      "geometry": {
        "type": "Point",
        "coordinates": [
          17.0657549,
          -22.5608807
        ]
      },
      "properties": {
        "sitename": "Windhoek",
        "Forecast": "DoS Missions"
      }
    },
    {
      "type": "Feature",
      "geometry": {
        "type": "Point",
        "coordinates": [
          -97.3964,
          49.9489
        ]
      },
      "properties": {
        "sitename": "Winnipeg",
        "Forecast": "DoS Missions"
      }
    },
    {
      "type": "Feature",
      "geometry": {
        "type": "Point",
        "coordinates": [
          114.30525,
          30.5927599
        ]
      },
      "properties": {
        "sitename": "Wuhan",
        "Forecast": "DoS Missions"
      }
    },
    {
      "type": "Feature",
      "geometry": {
        "type": "Point",
        "coordinates": [
          11.5020752,
          3.8480325
        ]
      },
      "properties": {
        "sitename": "Yaounde",
        "Forecast": "DoS Missions"
      }
    },
    {
      "type": "Feature",
      "geometry": {
        "type": "Point",
        "coordinates": [
          60.6454086,
          56.8430993
        ]
      },
      "properties": {
        "sitename": "Yekaterinburg",
        "Forecast": "DoS Missions"
      }
    },
    {
      "type": "Feature",
      "geometry": {
        "type": "Point",
        "coordinates": [
          44.48171,
          40.16515
        ]
      },
      "properties": {
        "sitename": "Yerevan",
        "Forecast": "DoS Missions"
      }
    },
    {
      "type": "Feature",
      "geometry": {
        "type": "Point",
        "coordinates": [
          139.6379639,
          35.4436739
        ]
      },
      "properties": {
        "sitename": "Yokohama",
        "Forecast": "DoS Missions"
      }
    },
    {
      "type": "Feature",
      "geometry": {
        "type": "Point",
        "coordinates": [
          15.9819189,
          45.8150108
        ]
      },
      "properties": {
        "sitename": "Zagreb",
        "Forecast": "DoS Missions"
      }
    },
    {
      "type": "Feature",
      "geometry": {
        "type": "Point",
        "coordinates": [
          43.9905,
          36.22663
        ]
      },
      "properties": {
        "sitename": "Erbil",
        "Forecast": "DoS Missions"
      }
    },
    {
      "type": "Feature",
      "geometry": {
        "type": "Point",
        "coordinates": [
          -56.070214,
          -15.555244
        ]
      },
      "properties": {
        "sitename": "Cuiaba",
        "Forecast": "AERONET"
      }
    },
    {
      "type": "Feature",
      "geometry": {
        "type": "Point",
        "coordinates": [
          -56.104453,
          -9.871339
        ]
      },
      "properties": {
        "sitename": "Alta_Floresta",
        "Forecast": "AERONET"
      }
    },
    {
      "type": "Feature",
      "geometry": {
        "type": "Point",
        "coordinates": [
          -63.068552,
          -9.19907
        ]
      },
      "properties": {
        "sitename": "Jamari",
        "Forecast": "AERONET"
      }
    },
    {
      "type": "Feature",
      "geometry": {
        "type": "Point",
        "coordinates": [
          -110.953003,
          32.233002
        ]
      },
      "properties": {
        "sitename": "Tucson",
        "Forecast": "AERONET"
      }
    },
    {
      "type": "Feature",
      "geometry": {
        "type": "Point",
        "coordinates": [
          -76.839833,
          38.9925
        ]
      },
      "properties": {
        "sitename": "GSFC",
        "Forecast": "AERONET"
      }
    },
    {
      "type": "Feature",
      "geometry": {
        "type": "Point",
        "coordinates": [
          -74.476387,
          39.802223
        ]
      },
      "properties": {
        "sitename": "Kolfield",
        "Forecast": "AERONET"
      }
    },
    {
      "type": "Feature",
      "geometry": {
        "type": "Point",
        "coordinates": [
          -48.41,
          -10.7
        ]
      },
      "properties": {
        "sitename": "Porto_Nacional",
        "Forecast": "AERONET"
      }
    },
    {
      "type": "Feature",
      "geometry": {
        "type": "Point",
        "coordinates": [
          -47.900002,
          -15.917
        ]
      },
      "properties": {
        "sitename": "Brasilia",
        "Forecast": "AERONET"
      }
    },
    {
      "type": "Feature",
      "geometry": {
        "type": "Point",
        "coordinates": [
          -72.188,
          42.532
        ]
      },
      "properties": {
        "sitename": "Harvard_Forest",
        "Forecast": "AERONET"
      }
    },
    {
      "type": "Feature",
      "geometry": {
        "type": "Point",
        "coordinates": [
          -75.47195,
          37.93285
        ]
      },
      "properties": {
        "sitename": "Wallops",
        "Forecast": "AERONET"
      }
    },
    {
      "type": "Feature",
      "geometry": {
        "type": "Point",
        "coordinates": [
          -76.449997,
          36.783333
        ]
      },
      "properties": {
        "sitename": "Hampton_Roads",
        "Forecast": "AERONET"
      }
    },
    {
      "type": "Feature",
      "geometry": {
        "type": "Point",
        "coordinates": [
          -77.724998,
          39.708332
        ]
      },
      "properties": {
        "sitename": "Hagerstown",
        "Forecast": "AERONET"
      }
    },
    {
      "type": "Feature",
      "geometry": {
        "type": "Point",
        "coordinates": [
          -75.675,
          37.453
        ]
      },
      "properties": {
        "sitename": "Hog_Island",
        "Forecast": "AERONET"
      }
    },
    {
      "type": "Feature",
      "geometry": {
        "type": "Point",
        "coordinates": [
          -49.683331,
          -3.716666
        ]
      },
      "properties": {
        "sitename": "Tukurui",
        "Forecast": "AERONET"
      }
    },
    {
      "type": "Feature",
      "geometry": {
        "type": "Point",
        "coordinates": [
          -110.788002,
          32.442001
        ]
      },
      "properties": {
        "sitename": "Arizona",
        "Forecast": "AERONET"
      }
    },
    {
      "type": "Feature",
      "geometry": {
        "type": "Point",
        "coordinates": [
          -54.706,
          -2.428584
        ]
      },
      "properties": {
        "sitename": "Santarem",
        "Forecast": "AERONET"
      }
    },
    {
      "type": "Feature",
      "geometry": {
        "type": "Point",
        "coordinates": [
          132.1635,
          43.7004
        ]
      },
      "properties": {
        "sitename": "Ussuriysk",
        "Forecast": "AERONET"
      }
    },
    {
      "type": "Feature",
      "geometry": {
        "type": "Point",
        "coordinates": [
          -106.069578,
          53.914386
        ]
      },
      "properties": {
        "sitename": "Waskesiu",
        "Forecast": "AERONET"
      }
    },
    {
      "type": "Feature",
      "geometry": {
        "type": "Point",
        "coordinates": [
          -63.033332,
          -9.916667
        ]
      },
      "properties": {
        "sitename": "Ariquiums",
        "Forecast": "AERONET"
      }
    },
    {
      "type": "Feature",
      "geometry": {
        "type": "Point",
        "coordinates": [
          -63.1798,
          -9.190911
        ]
      },
      "properties": {
        "sitename": "JamTown",
        "Forecast": "AERONET"
      }
    },
    {
      "type": "Feature",
      "geometry": {
        "type": "Point",
        "coordinates": [
          -80.16333,
          25.731966
        ]
      },
      "properties": {
        "sitename": "Key_Biscayne",
        "Forecast": "AERONET"
      }
    },
    {
      "type": "Feature",
      "geometry": {
        "type": "Point",
        "coordinates": [
          -106.885002,
          34.354721
        ]
      },
      "properties": {
        "sitename": "Sevilleta",
        "Forecast": "AERONET"
      }
    },
    {
      "type": "Feature",
      "geometry": {
        "type": "Point",
        "coordinates": [
          -156.253233,
          20.710029
        ]
      },
      "properties": {
        "sitename": "Hawaii",
        "Forecast": "AERONET"
      }
    },
    {
      "type": "Feature",
      "geometry": {
        "type": "Point",
        "coordinates": [
          -97.48639,
          36.60667
        ]
      },
      "properties": {
        "sitename": "Cart_Site",
        "Forecast": "AERONET"
      }
    },
    {
      "type": "Feature",
      "geometry": {
        "type": "Point",
        "coordinates": [
          -98.290001,
          55.903
        ]
      },
      "properties": {
        "sitename": "NSA_YJP_BOREAS",
        "Forecast": "AERONET"
      }
    },
    {
      "type": "Feature",
      "geometry": {
        "type": "Point",
        "coordinates": [
          -101.690002,
          54.669998
        ]
      },
      "properties": {
        "sitename": "FLIN_FLON",
        "Forecast": "AERONET"
      }
    },
    {
      "type": "Feature",
      "geometry": {
        "type": "Point",
        "coordinates": [
          -104.650002,
          53.674999
        ]
      },
      "properties": {
        "sitename": "SSA_YJP_BOREAS",
        "Forecast": "AERONET"
      }
    },
    {
      "type": "Feature",
      "geometry": {
        "type": "Point",
        "coordinates": [
          -105.699997,
          53.200001
        ]
      },
      "properties": {
        "sitename": "PRINCE_ALBERT",
        "Forecast": "AERONET"
      }
    },
    {
      "type": "Feature",
      "geometry": {
        "type": "Point",
        "coordinates": [
          -148.316269,
          64.742805
        ]
      },
      "properties": {
        "sitename": "Bonanza_Creek",
        "Forecast": "AERONET"
      }
    },
    {
      "type": "Feature",
      "geometry": {
        "type": "Point",
        "coordinates": [
          -155.576755,
          19.536006
        ]
      },
      "properties": {
        "sitename": "Mauna_Loa",
        "Forecast": "AERONET"
      }
    },
    {
      "type": "Feature",
      "geometry": {
        "type": "Point",
        "coordinates": [
          -97.849998,
          55.799999
        ]
      },
      "properties": {
        "sitename": "Thompson",
        "Forecast": "AERONET"
      }
    },
    {
      "type": "Feature",
      "geometry": {
        "type": "Point",
        "coordinates": [
          -122.223892,
          44.238609
        ]
      },
      "properties": {
        "sitename": "HJAndrews",
        "Forecast": "AERONET"
      }
    },
    {
      "type": "Feature",
      "geometry": {
        "type": "Point",
        "coordinates": [
          4.819,
          43.5765
        ]
      },
      "properties": {
        "sitename": "La_Crau",
        "Forecast": "AERONET"
      }
    },
    {
      "type": "Feature",
      "geometry": {
        "type": "Point",
        "coordinates": [
          -118.918884,
          45.13361
        ]
      },
      "properties": {
        "sitename": "Ukiah",
        "Forecast": "AERONET"
      }
    },
    {
      "type": "Feature",
      "geometry": {
        "type": "Point",
        "coordinates": [
          -89.653725,
          46.051888
        ]
      },
      "properties": {
        "sitename": "Wisconsin",
        "Forecast": "AERONET"
      }
    },
    {
      "type": "Feature",
      "geometry": {
        "type": "Point",
        "coordinates": [
          -61.799999,
          -10.86
        ]
      },
      "properties": {
        "sitename": "Ji_Parana",
        "Forecast": "AERONET"
      }
    },
    {
      "type": "Feature",
      "geometry": {
        "type": "Point",
        "coordinates": [
          -117.53389,
          47.61972
        ]
      },
      "properties": {
        "sitename": "Spokane",
        "Forecast": "AERONET"
      }
    },
    {
      "type": "Feature",
      "geometry": {
        "type": "Point",
        "coordinates": [
          -3.75,
          11.85
        ]
      },
      "properties": {
        "sitename": "Bondoukoui",
        "Forecast": "AERONET"
      }
    },
    {
      "type": "Feature",
      "geometry": {
        "type": "Point",
        "coordinates": [
          -2.45,
          14.06
        ]
      },
      "properties": {
        "sitename": "Bidi_Bahn",
        "Forecast": "AERONET"
      }
    },
    {
      "type": "Feature",
      "geometry": {
        "type": "Point",
        "coordinates": [
          3.141667,
          50.611667
        ]
      },
      "properties": {
        "sitename": "Lille",
        "Forecast": "AERONET"
      }
    },
    {
      "type": "Feature",
      "geometry": {
        "type": "Point",
        "coordinates": [
          -47.916668,
          -15.743333
        ]
      },
      "properties": {
        "sitename": "Park_Brasilia",
        "Forecast": "AERONET"
      }
    },
    {
      "type": "Feature",
      "geometry": {
        "type": "Point",
        "coordinates": [
          -123.066666,
          44.583332
        ]
      },
      "properties": {
        "sitename": "Albany_Oregon",
        "Forecast": "AERONET"
      }
    },
    {
      "type": "Feature",
      "geometry": {
        "type": "Point",
        "coordinates": [
          -121.73333,
          39.450001
        ]
      },
      "properties": {
        "sitename": "Biggs",
        "Forecast": "AERONET"
      }
    },
    {
      "type": "Feature",
      "geometry": {
        "type": "Point",
        "coordinates": [
          -55.830143,
          -15.360644
        ]
      },
      "properties": {
        "sitename": "Chapada",
        "Forecast": "AERONET"
      }
    },
    {
      "type": "Feature",
      "geometry": {
        "type": "Point",
        "coordinates": [
          -62.547749,
          -10.386164
        ]
      },
      "properties": {
        "sitename": "Jaru",
        "Forecast": "AERONET"
      }
    },
    {
      "type": "Feature",
      "geometry": {
        "type": "Point",
        "coordinates": [
          -62.467778,
          -10.443056
        ]
      },
      "properties": {
        "sitename": "JARU_TOWN",
        "Forecast": "AERONET"
      }
    },
    {
      "type": "Feature",
      "geometry": {
        "type": "Point",
        "coordinates": [
          -56.180279,
          -10.080833
        ]
      },
      "properties": {
        "sitename": "Agri_School",
        "Forecast": "AERONET"
      }
    },
    {
      "type": "Feature",
      "geometry": {
        "type": "Point",
        "coordinates": [
          -56.02,
          -9.667945
        ]
      },
      "properties": {
        "sitename": "Teles_Peres",
        "Forecast": "AERONET"
      }
    },
    {
      "type": "Feature",
      "geometry": {
        "type": "Point",
        "coordinates": [
          -122.25,
          40.150002
        ]
      },
      "properties": {
        "sitename": "Red_Bluff",
        "Forecast": "AERONET"
      }
    },
    {
      "type": "Feature",
      "geometry": {
        "type": "Point",
        "coordinates": [
          -117.191666,
          46.75
        ]
      },
      "properties": {
        "sitename": "Pullman",
        "Forecast": "AERONET"
      }
    },
    {
      "type": "Feature",
      "geometry": {
        "type": "Point",
        "coordinates": [
          -119.666664,
          45.816666
        ]
      },
      "properties": {
        "sitename": "Bordman",
        "Forecast": "AERONET"
      }
    },
    {
      "type": "Feature",
      "geometry": {
        "type": "Point",
        "coordinates": [
          -106.350998,
          32.918999
        ]
      },
      "properties": {
        "sitename": "White_Sands",
        "Forecast": "AERONET"
      }
    },
    {
      "type": "Feature",
      "geometry": {
        "type": "Point",
        "coordinates": [
          -55.993,
          -15.401
        ]
      },
      "properties": {
        "sitename": "GORDO_rest",
        "Forecast": "AERONET"
      }
    },
    {
      "type": "Feature",
      "geometry": {
        "type": "Point",
        "coordinates": [
          -114.083336,
          46.916668
        ]
      },
      "properties": {
        "sitename": "Missoula",
        "Forecast": "AERONET"
      }
    },
    {
      "type": "Feature",
      "geometry": {
        "type": "Point",
        "coordinates": [
          -117.870697,
          36.487778
        ]
      },
      "properties": {
        "sitename": "Owens_Lake",
        "Forecast": "AERONET"
      }
    },
    {
      "type": "Feature",
      "geometry": {
        "type": "Point",
        "coordinates": [
          -22.935499,
          16.7325
        ]
      },
      "properties": {
        "sitename": "Capo_Verde",
        "Forecast": "AERONET"
      }
    },
    {
      "type": "Feature",
      "geometry": {
        "type": "Point",
        "coordinates": [
          -1.48723,
          12.42413
        ]
      },
      "properties": {
        "sitename": "Ouagadougou",
        "Forecast": "AERONET"
      }
    },
    {
      "type": "Feature",
      "geometry": {
        "type": "Point",
        "coordinates": [
          -119.84536,
          34.415428
        ]
      },
      "properties": {
        "sitename": "UCSB",
        "Forecast": "AERONET"
      }
    },
    {
      "type": "Feature",
      "geometry": {
        "type": "Point",
        "coordinates": [
          -76.778099,
          38.766666
        ]
      },
      "properties": {
        "sitename": "Jug_Bay",
        "Forecast": "AERONET"
      }
    },
    {
      "type": "Feature",
      "geometry": {
        "type": "Point",
        "coordinates": [
          -76.555795,
          38.888901
        ]
      },
      "properties": {
        "sitename": "SERC",
        "Forecast": "AERONET"
      }
    },
    {
      "type": "Feature",
      "geometry": {
        "type": "Point",
        "coordinates": [
          -76.949881,
          39.093714
        ]
      },
      "properties": {
        "sitename": "Burtonsville",
        "Forecast": "AERONET"
      }
    },
    {
      "type": "Feature",
      "geometry": {
        "type": "Point",
        "coordinates": [
          -77.208336,
          39.133335
        ]
      },
      "properties": {
        "sitename": "Gaithersburg",
        "Forecast": "AERONET"
      }
    },
    {
      "type": "Feature",
      "geometry": {
        "type": "Point",
        "coordinates": [
          -117.25113,
          32.86846
        ]
      },
      "properties": {
        "sitename": "La_Jolla",
        "Forecast": "AERONET"
      }
    },
    {
      "type": "Feature",
      "geometry": {
        "type": "Point",
        "coordinates": [
          -104.69,
          53.916
        ]
      },
      "properties": {
        "sitename": "SS_OJP_BOREAS",
        "Forecast": "AERONET"
      }
    },
    {
      "type": "Feature",
      "geometry": {
        "type": "Point",
        "coordinates": [
          31.136159,
          -10.21697
        ]
      },
      "properties": {
        "sitename": "Kasama",
        "Forecast": "AERONET"
      }
    },
    {
      "type": "Feature",
      "geometry": {
        "type": "Point",
        "coordinates": [
          -105.260832,
          39.991466
        ]
      },
      "properties": {
        "sitename": "Boulder",
        "Forecast": "AERONET"
      }
    },
    {
      "type": "Feature",
      "geometry": {
        "type": "Point",
        "coordinates": [
          162.883331,
          -77.625
        ]
      },
      "properties": {
        "sitename": "McMurdo",
        "Forecast": "AERONET"
      }
    },
    {
      "type": "Feature",
      "geometry": {
        "type": "Point",
        "coordinates": [
          2.11206,
          41.38925
        ]
      },
      "properties": {
        "sitename": "Barcelona",
        "Forecast": "AERONET"
      }
    },
    {
      "type": "Feature",
      "geometry": {
        "type": "Point",
        "coordinates": [
          -105.12,
          53.985
        ]
      },
      "properties": {
        "sitename": "OBS_SSA",
        "Forecast": "AERONET"
      }
    },
    {
      "type": "Feature",
      "geometry": {
        "type": "Point",
        "coordinates": [
          -105.267,
          53.733
        ]
      },
      "properties": {
        "sitename": "CANDLE_LAKE",
        "Forecast": "AERONET"
      }
    },
    {
      "type": "Feature",
      "geometry": {
        "type": "Point",
        "coordinates": [
          -105.561817,
          53.507889
        ]
      },
      "properties": {
        "sitename": "Paddockwood",
        "Forecast": "AERONET"
      }
    },
    {
      "type": "Feature",
      "geometry": {
        "type": "Point",
        "coordinates": [
          114.258,
          22.2097
        ]
      },
      "properties": {
        "sitename": "Hong_Kong_Hok_Tsui",
        "Forecast": "AERONET"
      }
    },
    {
      "type": "Feature",
      "geometry": {
        "type": "Point",
        "coordinates": [
          34.782222,
          30.855
        ]
      },
      "properties": {
        "sitename": "SEDE_BOKER",
        "Forecast": "AERONET"
      }
    },
    {
      "type": "Feature",
      "geometry": {
        "type": "Point",
        "coordinates": [
          -89.41,
          43.07
        ]
      },
      "properties": {
        "sitename": "Madison",
        "Forecast": "AERONET"
      }
    },
    {
      "type": "Feature",
      "geometry": {
        "type": "Point",
        "coordinates": [
          -93.152222,
          16.754722
        ]
      },
      "properties": {
        "sitename": "Tuxtla_Gutierrez",
        "Forecast": "AERONET"
      }
    },
    {
      "type": "Feature",
      "geometry": {
        "type": "Point",
        "coordinates": [
          -91.425556,
          17.4875
        ]
      },
      "properties": {
        "sitename": "Tenosique",
        "Forecast": "AERONET"
      }
    },
    {
      "type": "Feature",
      "geometry": {
        "type": "Point",
        "coordinates": [
          -124.15102,
          41.05392
        ]
      },
      "properties": {
        "sitename": "Trinidad_Head",
        "Forecast": "AERONET"
      }
    },
    {
      "type": "Feature",
      "geometry": {
        "type": "Point",
        "coordinates": [
          -148.698333,
          69.428333
        ]
      },
      "properties": {
        "sitename": "Dead_Horse",
        "Forecast": "AERONET"
      }
    },
    {
      "type": "Feature",
      "geometry": {
        "type": "Point",
        "coordinates": [
          -71.93133,
          45.379754
        ]
      },
      "properties": {
        "sitename": "CARTEL",
        "Forecast": "AERONET"
      }
    },
    {
      "type": "Feature",
      "geometry": {
        "type": "Point",
        "coordinates": [
          -79.47,
          43.79
        ]
      },
      "properties": {
        "sitename": "Toronto",
        "Forecast": "AERONET"
      }
    },
    {
      "type": "Feature",
      "geometry": {
        "type": "Point",
        "coordinates": [
          -148.6665,
          69.627333
        ]
      },
      "properties": {
        "sitename": "North_Slope",
        "Forecast": "AERONET"
      }
    },
    {
      "type": "Feature",
      "geometry": {
        "type": "Point",
        "coordinates": [
          23.150833,
          -15.253611
        ]
      },
      "properties": {
        "sitename": "Mongu",
        "Forecast": "AERONET"
      }
    },
    {
      "type": "Feature",
      "geometry": {
        "type": "Point",
        "coordinates": [
          -62.034722,
          -14.766388
        ]
      },
      "properties": {
        "sitename": "El_Refugio",
        "Forecast": "AERONET"
      }
    },
    {
      "type": "Feature",
      "geometry": {
        "type": "Point",
        "coordinates": [
          -63.177717,
          -17.802133
        ]
      },
      "properties": {
        "sitename": "SANTA_CRUZ",
        "Forecast": "AERONET"
      }
    },
    {
      "type": "Feature",
      "geometry": {
        "type": "Point",
        "coordinates": [
          -54.616667,
          -20.45
        ]
      },
      "properties": {
        "sitename": "Campo_Grande",
        "Forecast": "AERONET"
      }
    },
    {
      "type": "Feature",
      "geometry": {
        "type": "Point",
        "coordinates": [
          -48.28333,
          -18.9
        ]
      },
      "properties": {
        "sitename": "Uberlandia",
        "Forecast": "AERONET"
      }
    },
    {
      "type": "Feature",
      "geometry": {
        "type": "Point",
        "coordinates": [
          -47.533333,
          -14.733333
        ]
      },
      "properties": {
        "sitename": "Alianca",
        "Forecast": "AERONET"
      }
    },
    {
      "type": "Feature",
      "geometry": {
        "type": "Point",
        "coordinates": [
          -55.175,
          -15.561667
        ]
      },
      "properties": {
        "sitename": "CAMPO_VERDE",
        "Forecast": "AERONET"
      }
    },
    {
      "type": "Feature",
      "geometry": {
        "type": "Point",
        "coordinates": [
          -56.621833,
          -16.3955
        ]
      },
      "properties": {
        "sitename": "Pantanal",
        "Forecast": "AERONET"
      }
    },
    {
      "type": "Feature",
      "geometry": {
        "type": "Point",
        "coordinates": [
          -62.863328,
          -9.23092
        ]
      },
      "properties": {
        "sitename": "Potosi_Mine",
        "Forecast": "AERONET"
      }
    },
    {
      "type": "Feature",
      "geometry": {
        "type": "Point",
        "coordinates": [
          -63.459333,
          -8.755167
        ]
      },
      "properties": {
        "sitename": "Repressa_Samuel",
        "Forecast": "AERONET"
      }
    },
    {
      "type": "Feature",
      "geometry": {
        "type": "Point",
        "coordinates": [
          -61.013889,
          -13.553056
        ]
      },
      "properties": {
        "sitename": "Flor_De_Oro",
        "Forecast": "AERONET"
      }
    },
    {
      "type": "Feature",
      "geometry": {
        "type": "Point",
        "coordinates": [
          2.66519,
          13.54693
        ]
      },
      "properties": {
        "sitename": "Banizoumbou",
        "Forecast": "AERONET"
      }
    },
    {
      "type": "Feature",
      "geometry": {
        "type": "Point",
        "coordinates": [
          -156.921667,
          20.735
        ]
      },
      "properties": {
        "sitename": "Lanai",
        "Forecast": "AERONET"
      }
    },
    {
      "type": "Feature",
      "geometry": {
        "type": "Point",
        "coordinates": [
          -157.789717,
          21.4329
        ]
      },
      "properties": {
        "sitename": "Coconut_Island",
        "Forecast": "AERONET"
      }
    },
    {
      "type": "Feature",
      "geometry": {
        "type": "Point",
        "coordinates": [
          -82.442778,
          30.205278
        ]
      },
      "properties": {
        "sitename": "OceolaNF",
        "Forecast": "AERONET"
      }
    },
    {
      "type": "Feature",
      "geometry": {
        "type": "Point",
        "coordinates": [
          -84.471111,
          31.23083
        ]
      },
      "properties": {
        "sitename": "JonesERC",
        "Forecast": "AERONET"
      }
    },
    {
      "type": "Feature",
      "geometry": {
        "type": "Point",
        "coordinates": [
          -84.23889,
          30.664167
        ]
      },
      "properties": {
        "sitename": "TallTimbers",
        "Forecast": "AERONET"
      }
    },
    {
      "type": "Feature",
      "geometry": {
        "type": "Point",
        "coordinates": [
          -82.128611,
          30.741111
        ]
      },
      "properties": {
        "sitename": "OkefenokeeNWR",
        "Forecast": "AERONET"
      }
    },
    {
      "type": "Feature",
      "geometry": {
        "type": "Point",
        "coordinates": [
          -64.696111,
          32.37
        ]
      },
      "properties": {
        "sitename": "Bermuda",
        "Forecast": "AERONET"
      }
    },
    {
      "type": "Feature",
      "geometry": {
        "type": "Point",
        "coordinates": [
          -82.871944,
          24.628056
        ]
      },
      "properties": {
        "sitename": "Dry_Tortugas",
        "Forecast": "AERONET"
      }
    },
    {
      "type": "Feature",
      "geometry": {
        "type": "Point",
        "coordinates": [
          7.984993,
          46.54748
        ]
      },
      "properties": {
        "sitename": "JUNGFRAU",
        "Forecast": "AERONET"
      }
    },
    {
      "type": "Feature",
      "geometry": {
        "type": "Point",
        "coordinates": [
          -14.414722,
          -7.976389
        ]
      },
      "properties": {
        "sitename": "Ascension_Island",
        "Forecast": "AERONET"
      }
    },
    {
      "type": "Feature",
      "geometry": {
        "type": "Point",
        "coordinates": [
          -83.083,
          42.283
        ]
      },
      "properties": {
        "sitename": "Windsor_B",
        "Forecast": "AERONET"
      }
    },
    {
      "type": "Feature",
      "geometry": {
        "type": "Point",
        "coordinates": [
          -59.624122,
          13.148575
        ]
      },
      "properties": {
        "sitename": "Barbados",
        "Forecast": "AERONET"
      }
    },
    {
      "type": "Feature",
      "geometry": {
        "type": "Point",
        "coordinates": [
          -149.6063,
          -17.5769
        ]
      },
      "properties": {
        "sitename": "Tahiti",
        "Forecast": "AERONET"
      }
    },
    {
      "type": "Feature",
      "geometry": {
        "type": "Point",
        "coordinates": [
          73.529167,
          4.191667
        ]
      },
      "properties": {
        "sitename": "MALE",
        "Forecast": "AERONET"
      }
    },
    {
      "type": "Feature",
      "geometry": {
        "type": "Point",
        "coordinates": [
          -97.44245,
          21.260717
        ]
      },