sitename,Latitude,Longitude,Forecast
Abidjan,5.3599517,-4.0082563,DoS Missions
Abu_Dhabi,24.42431,54.433874,DoS Missions
Abuja,9.041648,7.477374,DoS Missions
Accra,5.580642,-0.170724,DoS Missions
Adana,36.9914194,35.3308285,DoS Missions
Addis_Ababa,9.058498,38.761641,DoS Missions
Alexandria,31.2000924,29.9187387,DoS Missions
Algiers,36.755798,3.039114,DoS Missions
Almaty,43.252855,76.93118,DoS Missions
Amman,31.945021,35.880501,DoS Missions
Amsterdam,52.3675734,4.9041389,DoS Missions
Ankara,39.9333635,32.8597419,DoS Missions
Antananarivo,-18.90848,47.53751,DoS Missions
Antwerp,51.2213404,4.4051485,DoS Missions
Apia,-13.8506958,-171.7513551,DoS Missions
Ashgabat,37.9415,58.3879,DoS Missions
Asmara,15.3228767,38.9250517,DoS Missions
Asuncion,-25.293536,-57.60395,DoS Missions
Athens,37.9838096,23.7275388,DoS Missions
Auckland,-36.8508827,174.7644881,DoS Missions
Baghdad,33.3128,44.3615,DoS Missions
Baku,40.386992,49.842946,DoS Missions
Bamako,12.632524,-8.036911,DoS Missions
Bandar_Seri_Begawan,4.9030522,114.939821,DoS Missions
Bangkok,13.727622,100.486568,DoS Missions
Bangui,4.3946735,18.5581899,DoS Missions
Banja_Luka,44.7725,17.185556,DoS Missions
Banjul,13.454375,-16.5753186,DoS Missions
Barcelona,41.3873974,2.168568,DoS Missions
Beijing,39.953352,116.466258,DoS Missions
Beirut,33.8937913,35.5017767,DoS Missions
Belfast,54.597285,-5.93012,DoS Missions
Belgrade,44.8125449,20.4612299,DoS Missions
Belmopan,17.256124,-88.773876,DoS Missions
Berlin,52.5200066,13.404954,DoS Missions
Bern,46.9479739,7.4474468,DoS Missions
Bishkek,42.827626,74.58384,DoS Missions
Bogota,4.637735,-74.094856,DoS Missions
Bordeaux,44.837789,-0.57918,DoS Missions
Brasilia,-15.7975154,-47.8918874,DoS Missions
Bratislava,48.1485965,17.1077478,DoS Missions
Brazzaville,-4.2633597,15.2428853,DoS Missions
Bridgetown,13.1059816,-59.6131741,DoS Missions
Brussels,50.8476424,4.3571696,DoS Missions
Bucharest,44.4267674,26.1025384,DoS Missions
Budapest,47.497912,19.040235,DoS Missions
Buenos_Aires,-34.6036844,-58.3815591,DoS Missions
Bujumbura,-3.361378,29.3598782,DoS Missions
Busan,35.1795543,129.0756416,DoS Missions
Cairo,30.04147,31.23289,DoS Missions
Calgary,51.0814,-114.1403,DoS Missions
Canberra,-35.2809368,149.1300092,DoS Missions
Cape_Town,-33.9248685,18.4240553,DoS Missions
Caracas,10.4805937,-66.9036063,DoS Missions
Cartagena,10.3932277,-75.4832311,DoS Missions
Casablanca,33.5731104,-7.5898434,DoS Missions
CATANO,18.4465,66.1356,DoS Missions
Ceiba__Vega_Baja,18.4425245,-66.3562141,DoS Missions
Chennai,13.08784,80.278475,DoS Missions
Chiang_Mai,18.7883439,98.9853008,DoS Missions
Chisinau,47.021561,28.81938,DoS Missions
Ciudad_Juarez,31.6903638,-106.4245478,DoS Missions
Colombo,6.909445,79.875341,DoS Missions
Conakry,9.5951,-13.6364,DoS Missions
Copenhagen,55.6760968,12.5683372,DoS Missions
Cotonou,6.3702928,2.3912362,DoS Missions
CULEBRA,29.4874353,-98.6681378,DoS Missions
Curacao,12.16957,-68.99002,DoS Missions
Dakar,14.744791,-17.526484,DoS Missions
Dar_es_Salaam,-6.792354,39.2083284,DoS Missions
Dhahran,26.2361248,50.0393017,DoS Missions
Dhaka,23.796374,90.424614,DoS Missions
Dili,-8.5568557,125.5603143,DoS Missions
Djibouti_City,11.5720765,43.1456475,DoS Missions
Doha,25.3337,51.22953,DoS Missions
Douala,4.0510564,9.7678687,DoS Missions
Dubai,25.258481,55.309165,DoS Missions
Dublin,53.3498053,-6.2603097,DoS Missions
Durban,-29.8586804,31.0218404,DoS Missions
Dushanbe,38.557671,68.775917,DoS Missions
Dusseldorf,51.2277411,6.7734556,DoS Missions
Edinburgh,55.953252,-3.188267,DoS Missions
Florence,43.7695604,11.2558136,DoS Missions
Frankfurt_am_Main,50.1109221,8.6821267,DoS Missions
Freetown,8.4656765,-13.2317225,DoS Missions
Fukuoka,33.5901838,130.4016888,DoS Missions
Gaborone,-24.6282079,25.9231471,DoS Missions
Gaziantep,37.065953,37.37811,DoS Missions
Geneva,46.2043907,6.1431577,DoS Missions
Georgetown,6.8012793,-58.1551255,DoS Missions
Guadalajara,20.6596988,-103.3496092,DoS Missions
Guangzhou,23.116785,113.318088,DoS Missions
Guatemala_City,14.989397,-90.522408,DoS Missions
Guayaquil,-2.1894128,-79.8890662,DoS Missions
Halifax,44.647175,-63.573689,DoS Missions
Hamburg,53.5510846,9.9936819,DoS Missions
Hamilton,32.2945837,-64.7858887,DoS Missions
Hanoi,21.021939,105.818806,DoS Missions
Harare,-17.8216288,31.0492259,DoS Missions
Havana,23.1135925,-82.3665956,DoS Missions
Helsinki,60.1698557,24.9383791,DoS Missions
Hermosillo,29.0729673,-110.9559192,DoS Missions
Ho_Chi_Minh_City,10.782773,106.700035,DoS Missions
Hong_Kong,22.3193039,114.1693611,DoS Missions
Hyderabad,17.38405,78.45636,DoS Missions
Islamabad,33.725614,73.11602,DoS Missions
Istanbul,41.0082376,28.9783589,DoS Missions
Jakarta,-6.236704,106.793244,DoS Missions
Jeddah,21.543486,39.172989,DoS Missions
Jerusalem,31.768319,35.21371,DoS Missions
Johannesburg,-26.2041028,28.0473051,DoS Missions
Juba,4.859363,31.57125,DoS Missions
Kampala,0.300225,32.591554,DoS Missions
Kaohsiung,22.6272784,120.3014353,DoS Missions
Karachi,24.8415,67.0091,DoS Missions
Kathmandu,27.712464,85.315703,DoS Missions
Khartoum,15.5006544,32.5598994,DoS Missions
Kigali,-1.936231,30.077952,DoS Missions
Kingston,18.0178743,-76.8099041,DoS Missions
Kinshasa,-4.4419311,15.2662931,DoS Missions
Kirkuk,35.4666329,44.3798895,DoS Missions
Kolkata,22.56263,88.36304,DoS Missions
Krakow,50.0646501,19.9449799,DoS Missions
Kuala_Lumpur,3.15675,101.72145,DoS Missions
Kuwait_City,29.292317,48.047679,DoS Missions
Kyiv,50.4501,30.5234,DoS Missions
La_Paz,-16.489689,-68.1192936,DoS Missions
Lagos,6.440483,3.406815,DoS Missions
Lahore,31.560078,74.33589,DoS Missions
Leipzig,51.3396955,12.3730747,DoS Missions
Libreville,0.4161976,9.4672676,DoS Missions
Lilongwe,-13.9626121,33.7741195,DoS Missions
Lima,-12.0463731,-77.042754,DoS Missions
Lisbon,38.7222524,-9.1393366,DoS Missions
Ljubljana,46.0569465,14.5057515,DoS Missions
Lome,6.185167,1.214166,DoS Missions
London,51.5072178,-0.1275862,DoS Missions
Luanda,-8.8146556,13.2301756,DoS Missions
Lusaka,-15.3875259,28.3228165,DoS Missions
Luxembourg_City,49.611621,6.1319346,DoS Missions
Lyon,45.764043,4.835659,DoS Missions
Madrid,40.4167754,-3.7037902,DoS Missions
Malabo,3.7549606,8.7821344,DoS Missions
Managua,12.1149926,-86.2361744,DoS Missions
Manama,26.204697,50.570833,DoS Missions
Manila,14.57711,120.9778,DoS Missions
Maputo,-25.90382,32.62835,DoS Missions
Marseille,43.296482,5.36978,DoS Missions
Maseru,-29.3150767,27.4869229,DoS Missions
Matamoros,25.8690294,-97.5027376,DoS Missions
Mbabane,-26.3054482,31.1366715,DoS Missions
Medan,3.5951956,98.6722227,DoS Missions
Melbourne,-37.8136276,144.9630576,DoS Missions
Merida,20.9673702,-89.5925857,DoS Missions
Mexico_City,19.4116,-99.1522,DoS Missions
Milan,45.4642035,9.189982,DoS Missions
Minsk,53.9006011,27.558972,DoS Missions
Mogadishu,2.0469343,45.3181623,DoS Missions
Monrovia,6.3156068,-10.8073698,DoS Missions
Monterrey,25.6866142,-100.3161126,DoS Missions
Montevideo,-34.9011127,-56.1645314,DoS Missions
Montreal,45.502648,-73.663913,DoS Missions
Moscow,55.755826,37.6172999,DoS Missions
Mostar,43.3437748,17.8077578,DoS Missions
Mumbai,19.07283,72.88261,DoS Missions
Munchen,48.1351253,11.5819805,DoS Missions
Muscat,23.5880307,58.3828717,DoS Missions
Nagoya,35.1814506,136.9065571,DoS Missions
Naha,26.2125758,127.6790208,DoS Missions
Nairobi,-1.23437,36.81732,DoS Missions
Naples,40.8517983,14.26812,DoS Missions
Nassau,25.0443312,-77.3503609,DoS Missions
Nay_Pyi_Taw,19.7633057,96.0785104,DoS Missions
N_Djamena,12.1348457,15.0557415,DoS Missions
New_Delhi,28.63576,77.22445,DoS Missions
New_York,40.7269,-73.8933,DoS Missions
Niamey,13.5115963,2.1253854,DoS Missions
Nicosia,35.1855659,33.3822764,DoS Missions
Nogales,31.291294,-110.951508,DoS Missions
Nouakchott,18.0735299,-15.9582372,DoS Missions
Nuevo_Laredo,27.4779362,-99.549573,DoS Missions
Nur_Sultan,51.125287,71.467217,DoS Missions
Nuuk,64.1814099,-51.6941381,DoS Missions
Osaka,34.6937249,135.5022535,DoS Missions
Oslo,59.9138688,10.7522454,DoS Missions
Ottawa,45.434333,-75.67599,DoS Missions
Ouagadougou,12.304907,-1.497184,DoS Missions
Panama_City,8.9823792,-79.5198696,DoS Missions
Paramaribo,5.8520355,-55.2038278,DoS Missions
Paris,48.856614,2.3522219,DoS Missions
Perth,-31.9523123,115.861309,DoS Missions
Peshawar,34.005852,71.53775,DoS Missions
Phnom_Penh,11.5563738,104.9282099,DoS Missions
Podgorica,42.4304196,19.2593642,DoS Missions
Ponta_Delgada,37.7394207,-25.6686725,DoS Missions
Port_Louis,-20.1608912,57.5012222,DoS Missions
Port_Moresby,-9.4438004,147.1802671,DoS Missions
Port_of_Spain,10.6603196,-61.5085625,DoS Missions
Port_au_Prince,18.594395,-72.3074326,DoS Missions
Porto_Alegre,-30.0368176,-51.2089887,DoS Missions
Prague,50.0755381,14.4378005,DoS Missions
Praia,14.93305,-23.5133267,DoS Missions
Pretoria,-25.7478676,28.2292712,DoS Missions
Pristina,42.655959,21.139953,DoS Missions
Quebec,46.8615,-71.2572,DoS Missions
Quito,-0.1806532,-78.4678382,DoS Missions
Rabat,33.9715904,-6.8498129,DoS Missions
Rangoon,16.8256,96.1445,DoS Missions
Recife,-8.0577401,-34.8829629,DoS Missions
Rennes,48.117266,-1.6777926,DoS Missions
Reykjavik,64.146582,-21.9426354,DoS Missions
Riga,56.9496487,24.1051865,DoS Missions
Rio_de_Janeiro,-22.9068467,-43.1728965,DoS Missions
Riyadh,24.7135517,46.6752957,DoS Missions
Rome,41.9027835,12.4963655,DoS Missions
Saint_George_s,12.0560975,-61.7487996,DoS Missions
Saint_Petersburg,59.9310584,30.3609096,DoS Missions
San_Jose,9.949488,-84.142878,DoS Missions
San_Salvador,13.6929403,-89.2181911,DoS Missions
Santiago,-33.4488897,-70.6692655,DoS Missions
Santo_Domingo,18.4860575,-69.9312117,DoS Missions
Sao_Paulo,-23.629158,-46.696558,DoS Missions
Sapporo,43.0617713,141.3544507,DoS Missions
Sarajevo,43.856665,18.398205,DoS Missions
Seoul,37.566535,126.9779692,DoS Missions
Shanghai,31.210683,121.448226,DoS Missions
Shenyang,41.78351,123.424434,DoS Missions
Singapore_City,1.35735,103.699997,DoS Missions
Skopje,41.9981294,21.4254355,DoS Missions
Sofia,42.6977082,23.3218675,DoS Missions
Stockholm,59.3293235,18.0685808,DoS Missions
Strasbourg,48.5734053,7.7521113,DoS Missions
Surabaya,-7.2574719,112.7520883,DoS Missions
Suva,-18.1405049,178.4232507,DoS Missions
Sydney,-33.8688197,151.2092955,DoS Missions
Taipei,25.0329636,121.5654268,DoS Missions
Tallinn,59.4369608,24.7535747,DoS Missions
Tashkent,41.3672,69.2725,DoS Missions
Tbilisi,41.7151377,44.827096,DoS Missions
Tegucigalpa,14.065049,-87.1715002,DoS Missions
Tel_Aviv,32.0852999,34.7817676,DoS Missions
The_Hague,52.0704978,4.3006999,DoS Missions
Thessaloniki,40.6400629,22.9444191,DoS Missions
Tijuana,32.523366,-116.952495,DoS Missions
Tirana,41.3275459,19.8186982,DoS Missions
Tokyo,35.6761919,139.6503106,DoS Missions
Toronto,43.645451,-79.3891,DoS Missions
Toulouse,43.604652,1.444209,DoS Missions
Tripoli,32.8872094,13.1913383,DoS Missions
Tunis,36.8064948,10.1815316,DoS Missions
Ulaanbaatar,47.928385,106.92947,DoS Missions
Valletta,35.8989085,14.5145528,DoS Missions
Vancouver,49.368,-123.277,DoS Missions
Vatican_City,41.902916,12.453389,DoS Missions
Vienna,48.2081743,16.3738189,DoS Missions
Vientiane,17.896122,102.64,DoS Missions
Vilnius,54.6871555,25.2796514,DoS Missions
Vladivostok,43.1332484,131.9112975,DoS Missions
Warsaw,52.2296756,21.0122287,DoS Missions
Washington,38.921848,-77.013176,DoS Missions
Wellington,-41.2923814,174.7787463,DoS Missions
Windhoek,-22.5608807,17.0657549,DoS Missions
Winnipeg,49.9489,-97.3964,DoS Missions
Wuhan,30.5927599,114.30525,DoS Missions
Yaounde,3.8480325,11.5020752,DoS Missions
Yekaterinburg,56.8430993,60.6454086,DoS Missions
Yerevan,40.16515,44.48171,DoS Missions
Yokohama,35.4436739,139.6379639,DoS Missions
Zagreb,45.8150108,15.9819189,DoS Missions
Erbil,36.22663,43.9905,DoS Missions
Cuiaba,-15.555244,-56.070214,AERONET
Alta_Floresta,-9.871339,-56.104453,AERONET
Jamari,-9.19907,-63.068552,AERONET
Tucson,32.233002,-110.953003,AERONET
GSFC,38.9925,-76.839833,AERONET
Kolfield,39.802223,-74.476387,AERONET
Porto_Nacional,-10.7,-48.41,AERONET
Brasilia,-15.917,-47.900002,AERONET
Harvard_Forest,42.532,-72.188,AERONET
Wallops,37.93285,-75.47195,AERONET
Hampton_Roads,36.783333,-76.449997,AERONET
Hagerstown,39.708332,-77.724998,AERONET
Hog_Island,37.453,-75.675,AERONET
Tukurui,-3.716666,-49.683331,AERONET
Arizona,32.442001,-110.788002,AERONET
Santarem,-2.428584,-54.706,AERONET
Ussuriysk,43.7004,132.1635,AERONET
Waskesiu,53.914386,-106.069578,AERONET
Ariquiums,-9.916667,-63.033332,AERONET
JamTown,-9.190911,-63.1798,AERONET
Key_Biscayne,25.731966,-80.16333,AERONET
Sevilleta,34.354721,-106.885002,AERONET
Hawaii,20.710029,-156.253233,AERONET
Cart_Site,36.60667,-97.48639,AERONET
NSA_YJP_BOREAS,55.903,-98.290001,AERONET
FLIN_FLON,54.669998,-101.690002,AERONET
SSA_YJP_BOREAS,53.674999,-104.650002,AERONET
PRINCE_ALBERT,53.200001,-105.699997,AERONET
Bonanza_Creek,64.742805,-148.316269,AERONET
Mauna_Loa,19.536006,-155.576755,AERONET
Thompson,55.799999,-97.849998,AERONET
HJAndrews,44.238609,-122.223892,AERONET
La_Crau,43.5765,4.819,AERONET
Ukiah,45.13361,-118.918884,AERONET
Wisconsin,46.051888,-89.653725,AERONET
Ji_Parana,-10.86,-61.799999,AERONET
Spokane,47.61972,-117.53389,AERONET
Bondoukoui,11.85,-3.75,AERONET
Bidi_Bahn,14.06,-2.45,AERONET
Lille,50.611667,3.141667,AERONET
Park_Brasilia,-15.743333,-47.916668,AERONET
Albany_Oregon,44.583332,-123.066666,AERONET
Biggs,39.450001,-121.73333,AERONET
Chapada,-15.360644,-55.830143,AERONET
Jaru,-10.386164,-62.547749,AERONET
JARU_TOWN,-10.443056,-62.467778,AERONET
Agri_School,-10.080833,-56.180279,AERONET
Teles_Peres,-9.667945,-56.02,AERONET
Red_Bluff,40.150002,-122.25,AERONET
Pullman,46.75,-117.191666,AERONET
Bordman,45.816666,-119.666664,AERONET
White_Sands,32.918999,-106.350998,AERONET
GORDO_rest,-15.401,-55.993,AERONET
Missoula,46.916668,-114.083336,AERONET
Owens_Lake,36.487778,-117.870697,AERONET
Capo_Verde,16.7325,-22.935499,AERONET
Ouagadougou,12.42413,-1.48723,AERONET
UCSB,34.415428,-119.84536,AERONET
Jug_Bay,38.766666,-76.778099,AERONET
SERC,38.888901,-76.555795,AERONET
Burtonsville,39.093714,-76.949881,AERONET
Gaithersburg,39.133335,-77.208336,AERONET
La_Jolla,32.86846,-117.25113,AERONET
SS_OJP_BOREAS,53.916,-104.69,AERONET
Kasama,-10.21697,31.136159,AERONET
Boulder,39.991466,-105.260832,AERONET
McMurdo,-77.625,162.883331,AERONET
Barcelona,41.38925,2.11206,AERONET
OBS_SSA,53.985,-105.12,AERONET
CANDLE_LAKE,53.733,-105.267,AERONET
Paddockwood,53.507889,-105.561817,AERONET
Hong_Kong_Hok_Tsui,22.2097,114.258,AERONET
SEDE_BOKER,30.855,34.782222,AERONET
Madison,43.07,-89.41,AERONET
Tuxtla_Gutierrez,16.754722,-93.152222,AERONET
Tenosique,17.4875,-91.425556,AERONET
Trinidad_Head,41.05392,-124.15102,AERONET
Dead_Horse,69.428333,-148.698333,AERONET
CARTEL,45.379754,-71.93133,AERONET
Toronto,43.79,-79.47,AERONET
North_Slope,69.627333,-148.6665,AERONET
Mongu,-15.253611,23.150833,AERONET
El_Refugio,-14.766388,-62.034722,AERONET
SANTA_CRUZ,-17.802133,-63.177717,AERONET
Campo_Grande,-20.45,-54.616667,AERONET
Uberlandia,-18.9,-48.28333,AERONET
Alianca,-14.733333,-47.533333,AERONET
CAMPO_VERDE,-15.561667,-55.175,AERONET
Pantanal,-16.3955,-56.621833,AERONET
Potosi_Mine,-9.23092,-62.863328,AERONET
Repressa_Samuel,-8.755167,-63.459333,AERONET
Flor_De_Oro,-13.553056,-61.013889,AERONET
Banizoumbou,13.54693,2.66519,AERONET
Lanai,20.735,-156.921667,AERONET
Coconut_Island,21.4329,-157.789717,AERONET
OceolaNF,30.205278,-82.442778,AERONET
JonesERC,31.23083,-84.471111,AERONET
TallTimbers,30.664167,-84.23889,AERONET
OkefenokeeNWR,30.741111,-82.128611,AERONET
Bermuda,32.37,-64.696111,AERONET
Dry_Tortugas,24.628056,-82.871944,AERONET
JUNGFRAU,46.54748,7.984993,AERONET
Ascension_Island,-7.976389,-14.414722,AERONET
Windsor_B,42.283,-83.083,AERONET
Barbados,13.148575,-59.624122,AERONET
Tahiti,-17.5769,-149.6063,AERONET
MALE,4.191667,73.529167,AERONET
Tamihua,21.260717,-97.44245,AERONET
Barrow,71.3122,-156.665,AERONET
T0_MAX_MEX,19.489944,-99.1485,AERONET
Quarzazate,30.939,-6.909,AERONET
REUNION_ST_DENIS,-20.90139,55.48474,AERONET
Tromelin,-15.889167,54.517333,AERONET
Rame_Head,50.317132,-4.219809,AERONET
Dakar,14.394167,-16.958611,AERONET
CRETE,35.337667,25.667833,AERONET
Guadeloup,16.22492,-61.528378,AERONET
Aire_Adour,43.7,0.25,AERONET
Miami,25.72292,-80.27972,AERONET
Sterling,38.98333,-77.46667,AERONET
Sandy_Hook,40.448056,-73.99333,AERONET
BONDVILLE,40.053333,-88.371944,AERONET
Kaloma,-14.86,24.8275,AERONET
Mfuwe,-13.256667,31.930833,AERONET
MISR-JPL,34.199,-118.17439,AERONET
Senanga,-16.108889,23.293333,AERONET
Los_Fieros,-14.55,-60.616667,AERONET
LOS_FIEROS_98,-14.556,-60.929,AERONET
NEW_YORK,40.77,-74.0,AERONET
Zambezi,-13.533167,23.107194,AERONET
Cheritan,37.289478,-75.971778,AERONET
Las_Cardes,-30.250833,-71.257778,AERONET
Bratts_Lake,50.204238,-104.713013,AERONET
Tombstone,31.742,-110.05,AERONET
Dalanzadgad,43.577222,104.419167,AERONET
Ulaangom,49.973035,92.078183,AERONET
Venise,45.3139,12.5083,AERONET
T1_MAX_MEX,19.703067,-98.98195,AERONET
Joberg,-26.186133,28.029167,AERONET
Manaus,-2.59908,-60.03864,AERONET
Windsor_M,42.17,-82.87,AERONET
Xanthi,41.146767,24.91895,AERONET
Krasnoyarsk,55.983333,92.766667,AERONET
San_Nicolas,33.256889,-119.486972,AERONET
Sesheke,-17.48083,24.303889,AERONET
Izana,28.30932,-16.49906,AERONET
Tenerife,28.033333,-16.633333,AERONET
Lunar_Lake,38.390083,-115.988383,AERONET
Teide,28.27,-16.639,AERONET
Sioux_Falls,43.736481,-96.625991,AERONET
Walker_Branch,35.958333,-84.2875,AERONET
Niabrara,42.764833,-100.02,AERONET
Egbert,44.231543,-79.781414,AERONET
Ispra,45.80305,8.6267,AERONET
Mainz,49.999,8.3,AERONET
Ben_McDhui,-30.710833,27.6175,AERONET
Brookhaven,40.866,-72.8847,AERONET
Saturn_Island,48.775252,-123.128177,AERONET
Latoya,-15.678133,23.299883,AERONET
Kaashidhoo,4.965,73.466,AERONET
Surinam,5.8,-55.2,AERONET
Oyster,37.295044,-75.933192,AERONET
NCU_Taiwan,24.967662,121.187508,AERONET
Ilorin,8.4841,4.6745,AERONET
Concepcion,-16.138167,-62.028,AERONET
Dongsha_Island,20.698556,116.728833,AERONET
Chao_Jou,22.513056,120.529167,AERONET
Arica,-18.471667,-70.313333,AERONET
Tinga_Tingana,-28.975833,139.990933,AERONET
Monclova,25.95,-101.47,AERONET
Aguascalientes,21.7,-102.32,AERONET
MCO-Hanimaadhoo,6.77635,73.183183,AERONET
NASA_LaRC,37.10496,-76.37864,AERONET
Pickle_Lake,51.449444,-90.2175,AERONET
IMAA_Potenza,40.601254,15.7237,AERONET
Andros_Island,24.7,-77.8,AERONET
Kejimkujik,44.383333,-65.2833,AERONET
Skukuza,-24.9917,31.5875,AERONET
Bahrain,26.20805,50.609267,AERONET
Table_Mountain,40.125,-105.237,AERONET
TABLE_MOUNTAIN_CA,34.38,-117.68,AERONET
Howland,45.2041,-68.7402,AERONET
Chequamegon,45.933333,-90.25,AERONET
USDA,39.029999,-76.879997,AERONET
Honolulu,21.3172,-157.8861,AERONET
St_John_Island,18.32,-64.73,AERONET
Barnaul,53.341667,83.772222,AERONET
Bethlehem,-28.248333,28.333333,AERONET
Solar_Village,24.906933,46.397286,AERONET
Abracos_Hill,-10.76,-62.358333,AERONET
EOPACE1,36.182167,-75.75075,AERONET
EOPACE2,36.183583,-75.744717,AERONET
Mexico_City,19.333611,-99.181667,AERONET
Carlsbad,32.368833,-104.233167,AERONET
Buena_Vista,35.22,-119.26,AERONET
Rimrock,46.4875,-116.991667,AERONET
Chinhae,35.1558,128.652433,AERONET
Albuquerque,35.051672,-106.535836,AERONET
Kolimbari,35.533333,23.783333,AERONET
Helgoland,54.177861,7.887361,AERONET
Tahoe_City,39.1733,-120.135,AERONET
Nauru,-0.5206,166.9159,AERONET
Shelton,40.750064,-98.760286,AERONET
Creteil,48.7885,2.442783,AERONET
Mont_Joli,48.64,-68.156,AERONET
Marina,36.806284,-121.787993,AERONET
Gotland,57.916667,18.95,AERONET
Konza,39.0825,-96.559667,AERONET
Sopot,54.450833,18.564722,AERONET
Clermont_Ferrand,45.772435,2.964332,AERONET
Palaiseau,48.7116,2.215,AERONET
Saclay,48.73333,2.16666,AERONET
Paris,48.846797,2.355508,AERONET
Toulouse,43.574722,1.373889,AERONET
Moldova,47.0008,28.8156,AERONET
MD_Science_Center,39.28123,-76.612052,AERONET
GOA_INDIA,15.4525,73.806111,AERONET
Dharwar,15.428611,74.988611,AERONET
Aguas_Emendadas,-15.58175,-47.6563,AERONET
Belterra,-2.648483,-54.95165,AERONET
Balbina,-1.916983,-59.4868,AERONET
CEILAP-BA,-34.555425,-58.506411,AERONET
Anmyon,36.538537,126.330194,AERONET
Katibougou,12.916667,-7.532,AERONET
Cordoba-CETT,-31.524075,-64.463682,AERONET
Dead_Sea,31.1,35.45,AERONET
COVE,36.9,-75.71,AERONET
China_Lake,35.6741,-117.744533,AERONET
Tremiti,42.117965,15.490115,AERONET
IMS-METU-ERDEMLI,36.565,34.255,AERONET
Avignon,43.93275,4.878067,AERONET
Mammoth_Lake,37.616667,-119.033333,AERONET
Rogers_Dry_Lake,34.92555,-117.885,AERONET
Stennis,30.368014,-89.616667,AERONET
El_Arenosillo,37.105,-6.733472,AERONET
UCLA,34.069605,-118.442752,AERONET
Nes_Ziona,31.9225,34.789167,AERONET
Maricopa,33.069023,-111.972298,AERONET
Inhaca,-26.040583,32.905,AERONET
Kyiv,50.363611,30.496667,AERONET
Churchill,58.736,-93.818167,AERONET
IMC_Oristano,39.91,8.5,AERONET
Azores,38.53,-28.63,AERONET
Hamburg,53.568333,9.973333,AERONET
KONZA_EDC,39.102328,-96.6096,AERONET
Roosevelt_Roads,18.212336,-65.599456,AERONET
Puerto_Madryn,-42.79,-65.01,AERONET
Modena,44.631667,10.945278,AERONET
La_Parguera,17.97045,-67.045383,AERONET
Rio_Branco,-9.957467,-67.86935,AERONET
Lampedusa,35.516667,12.631667,AERONET
Maun_Tower,-19.9,23.55,AERONET
Ndola,-12.995,28.658333,AERONET
Solwezi,-12.170667,26.363333,AERONET
Cairo_University,30.026167,31.207317,AERONET
Sua_Pan,-20.533333,26.066667,AERONET
Swakopmund,-22.65785,14.564033,AERONET
GISS,40.7977,-73.9599,AERONET
Etosha_Pan,-19.175017,15.914383,AERONET
Mwinilunga,-11.74,24.430667,AERONET
Pietersburg,-23.883333,29.45,AERONET
Kaoma,-14.792667,24.794833,AERONET
SKUKUZA_AEROPORT,-24.969,31.593,AERONET
Osaka,34.650933,135.590633,AERONET
Bucarest,44.45,26.525,AERONET
Shirahama,33.69345,135.356917,AERONET
BSRN_BAO_Boulder,40.045183,-105.006033,AERONET
Kanpur,26.512778,80.231639,AERONET
Midway_Island,28.209833,-177.378333,AERONET
Billerica,42.528347,-71.268619,AERONET
Moscow_MSU_MO,55.706947,37.522019,AERONET
Minsk,53.92,27.601,AERONET
Beijing,39.97689,116.38137,AERONET
NUIST,32.206483,118.71715,AERONET
Ningbo,29.859945,121.546872,AERONET
Qiandaohu,29.555717,119.052633,AERONET
Shanghi_Met,31.221383,121.548517,AERONET
Shanghi_Minhang,31.13045,121.39734,AERONET
Perth,-32.008056,115.893611,AERONET
Kelowna,49.955333,-119.373,AERONET
CEILAP-UTN,-34.659722,-58.468611,AERONET
New_Delhi,28.630467,77.1751,AERONET
Okinawa,26.356667,127.768333,AERONET
Kuopio,62.892414,27.633606,AERONET
Agoufou,15.3454,-1.479117,AERONET
Sao_Paulo,-23.5615,-46.734983,AERONET
MPI_Mainz,49.992,8.2375,AERONET
Seoul_SNU,37.458056,126.951111,AERONET
Angiola,35.947,-119.538,AERONET
Al_Dhafra,24.254278,54.549667,AERONET
SteamboatSpring,40.404867,-106.807117,AERONET
Rome_Tor_Vergata,41.83955,12.647333,AERONET
SMHI,58.58,16.15,AERONET
Rottnest_Island,-32.000103,115.501667,AERONET
THALA,35.55,8.683333,AERONET
Gosan_SNU,33.292222,126.161667,AERONET
CUIABA-MIRANDA,-15.73091,-56.07086,AERONET
XiangHe,39.7536,116.9615,AERONET
Orizaba,19.106111,-97.324167,AERONET
Dunhuang,40.03838,94.794,AERONET
Bragansa,-0.834,-46.641,AERONET
Noto,37.334444,137.136944,AERONET
Leipzig,51.3525,12.435278,AERONET
Inner_Mongolia,42.68319,115.9537,AERONET
Lan_Yu_Island,22.037306,121.558111,AERONET
Yulin,38.283333,109.716667,AERONET
BORDEAUX,44.788028,-0.579167,AERONET
Marseille,43.2824,5.383817,AERONET
Realtor,43.48555,5.383817,AERONET
Vinon,43.709233,5.75865,AERONET
Railroad_Valley,38.497,-115.691,AERONET
Oostende,51.225,2.925,AERONET
Homburi,15.329167,-1.546667,AERONET
Philadelphia,40.035667,-75.004667,AERONET
Davos,46.81281,9.84369,AERONET
Penn_State_Univ,40.7421,-78.0809,AERONET
Lochiel,49.028,-122.602,AERONET
Santiago,-33.489633,-70.717033,AERONET
Rochester,43.2337,-77.5864,AERONET
Big_Meadows,38.521944,-78.436111,AERONET
Tarbes,43.25,0.083333,AERONET
Biarritz,43.483333,-1.55,AERONET
Pic_du_midi,42.937217,0.1413,AERONET
CCNY,40.821313,-73.949036,AERONET
The_Hague,52.11048,4.32682,AERONET
Columbia_SC,34.022803,-81.036333,AERONET
Jabiru,-12.6607,132.8931,AERONET
Lake_Argyle,-16.1081,128.7485,AERONET
Munich_University,48.148,11.573,AERONET
Lecce_University,40.335111,18.111389,AERONET
Coleambally,-34.8101,146.0644,AERONET
Tarbes_Etal,43.224033,0.049283,AERONET
Kuwait_University,29.325,47.971,AERONET
Hermosillo,29.074722,-110.96,AERONET
Yekaterinburg,57.038333,59.545,AERONET
Mussafa,24.371667,54.466667,AERONET
Tomsk,56.475351,85.04806,AERONET
London-UCL-UAO,51.52427,-0.131101,AERONET
Yakutsk,61.661667,129.366667,AERONET
ATHENS-NOA,37.9721,23.718,AERONET
Dahkla,23.716667,-15.95,AERONET
ISDGM_CNR,45.436981,12.331982,AERONET
Taipei_CWB,25.014683,121.53837,AERONET
Chen-Kung_Univ,22.993419,120.204664,AERONET
Fontainebleau,48.406667,2.680278,AERONET
Munich_Maisach,48.209,11.258,AERONET
Norfolk_State_Univ,36.848,-76.259,AERONET
Monterey,36.59255,-121.854867,AERONET
Belsk,51.836667,20.791667,AERONET
Fresno,36.781733,-119.773167,AERONET
IHOP-Homestead,36.558333,-100.606183,AERONET
Toravere,58.264895,26.466823,AERONET
Corcoran,36.10343,-119.5661,AERONET
Andenes,69.278333,16.008611,AERONET
SMEX,41.936,-93.664,AERONET
Halifax,44.638,-63.594,AERONET
Villefranche,43.683889,7.328889,AERONET
Jaru_Reserve,-10.083333,-61.933333,AERONET
CRYSTAL_FACE,25.650167,-80.422167,AERONET
Ji_Parana_UNIR,-10.882212,-61.9686,AERONET
North_Pole,88.80333,24.25433,AERONET
Wits_University,-26.192444,28.028972,AERONET
Ahi_De_Cara,37.12,-3.43,AERONET
Armilla,37.134258,-3.631519,AERONET
Pitres,36.935778,-3.326081,AERONET
Kuujjuarapik,55.28,-77.76,AERONET
Porto_Velho,-8.77,-63.95,AERONET
FORTH_CRETE,35.332694,25.282417,AERONET
AntarcticaDomeC,-75.099953,123.331299,AERONET
Palencia,41.988572,-4.515694,AERONET
Canberra,-35.2713,149.1111,AERONET
Lannion,48.730833,-3.461944,AERONET
Amsterdam_Island,-37.799544,77.571946,AERONET
Chulalongkorn,13.736111,100.530278,AERONET
Omkoi,17.798333,98.431667,AERONET
Pimai,15.181944,102.564167,AERONET
Hua_Hin,12.634444,99.951111,AERONET
Palgrunden,58.755333,13.1515,AERONET
Bac_Giang,21.291416,106.225472,AERONET
Bac_Lieu,9.28,105.73,AERONET
Cabo_Raso,38.70937,-9.48587,AERONET
Carpentras,44.083333,5.058333,AERONET
Kellogg_LTER,42.407983,-85.371717,AERONET
Rossfeld,48.335139,7.62475,AERONET
Cabauw,51.971,4.927,AERONET
Longyearbyen,78.222833,15.649,AERONET
Riverside_Park,38.716667,-77.066667,AERONET
Rockville,39.056085,-77.129582,AERONET
The_Mall,38.889522,-77.030917,AERONET
Greenbelt_Park,38.746,-76.89355,AERONET
Worthington_ES,39.244536,-76.792985,AERONET
Mt_Royal_ES_MS,39.309093,-76.625087,AERONET
Mt_Washington_ES,39.36631,-76.65459,AERONET
Southeast_MS,39.284685,-76.530643,AERONET
Talmudical_Academy,39.369406,-76.74619,AERONET
Sugarcone,39.384722,-76.685833,AERONET
Frederick_Douglas,39.315484,-76.654572,AERONET
Hamilton_El_MS,39.358986,-76.558236,AERONET
Lakeland_El_MS,39.254146,-76.645314,AERONET
Lansdowne_HS,39.245066,-76.648472,AERONET
Robert_Poole_MS,39.33041,-76.63752,AERONET
Waters_Art_Gallery,39.3,-76.616667,AERONET
Patapsco_MS,39.303046,-76.847241,AERONET
Windsor_Corp_Park,39.3265,-76.7545,AERONET
St_Timothys_Lane,39.272724,-76.728612,AERONET
Glendale_Park,39.3837,-76.578817,AERONET
LW-SCAN,34.96047,-97.97884,AERONET
Toulon,43.135556,6.009444,AERONET
Dunkerque,51.03535,2.368117,AERONET
Irkutsk,51.799797,103.086644,AERONET
Evora,38.567833,-7.9115,AERONET
ETNA,37.6135,15.019433,AERONET
Sao_Martinho_SONDA,-29.443333,-53.823444,AERONET
Brasilia_SONDA,-15.60129,-47.71348,AERONET
Petrolina_SONDA,-9.0691,-40.320108,AERONET
Campo_Grande_SONDA,-20.438617,-54.538742,AERONET
Ellington_Field,29.6,-95.18,AERONET
Hyytiala,61.846447,24.295892,AERONET
MVCO,41.325,-70.5667,AERONET
Laegeren,47.478349,8.364352,AERONET
Egbert_X,44.231543,-79.781414,AERONET
Mace_Head,53.32583,-9.89944,AERONET
Blida,36.508333,2.880556,AERONET
Dhabi,24.480556,54.382778,AERONET
New_Hampshire_Univ,43.1325,-70.92,AERONET
Crozet_Island,-46.434806,51.850361,AERONET
Mukdahan,16.606667,104.676111,AERONET
Los_Alamos,35.873583,-106.326067,AERONET
BEIJING_2002,39.933333,116.283333,AERONET
Cabo_da_Roca,38.781722,-9.497667,AERONET
Messina,38.1975,15.566833,AERONET
Panama_BCI,9.166667,-79.85,AERONET
Djougou,9.76007,1.59901,AERONET
Gwangju_GIST,35.228278,126.843139,AERONET
Thessaloniki,40.63,22.96,AERONET
Rio_Piedras,18.40185,-66.051483,AERONET
Umm_Al_Quwain,25.533333,55.658333,AERONET
Abu_Dhabi,24.476111,54.328889,AERONET
Ames,42.021361,-93.774778,AERONET
Darwin,-12.424,130.8915,AERONET
IER_Cinzana,13.278433,-5.933867,AERONET
Granada,37.164,-3.605,AERONET
Mezaira,23.10452,53.75466,AERONET
Al_Khaznah,24.158611,55.100556,AERONET
Hamim,22.966667,54.3,AERONET
Jabal_Hafeet,24.058217,55.776383,AERONET
Al_Qlaa,24.133333,53.033333,AERONET
Saada,31.62583,-8.15583,AERONET
Saih_Salam,24.829467,55.312783,AERONET
Dhadnah,25.512817,56.324717,AERONET
Chebogue_Point,43.747,-66.123,AERONET
Resolute_Bay,74.705123,-94.969409,AERONET
MAARCO,24.700333,54.658833,AERONET
SMART,24.249321,55.612064,AERONET
Abu_Al_Bukhoosh,25.495,53.145833,AERONET
Dalma,24.502222,52.331667,AERONET
Sir_Bu_Nuair,25.217825,54.231269,AERONET
Pune,18.537255,73.805491,AERONET
Nicelli_Airport,45.426444,12.382417,AERONET
Santa_Cruz_Tenerife,28.472528,-16.247361,AERONET
Moss_Landing,36.793133,-121.788167,AERONET
Zakum_Field,24.835267,53.613167,AERONET
Cape_San_Juan,18.3845,-65.6199,AERONET
Fresno_X,36.781733,-119.773167,AERONET
Sioux_Falls_X,43.736283,-96.625983,AERONET
Kapoho,19.516222,-154.810806,AERONET
Prospect_Hill,32.299314,-64.765092,AERONET
Karlsruhe,49.0933,8.4279,AERONET
Bodele,16.883,18.55,AERONET
Gustav_Dalen_Tower,58.59417,17.46683,AERONET
Liangning,41.5118,122.7013,AERONET
Hornsund,77.00148,15.54028,AERONET
Cairo_EMA,30.080767,31.290067,AERONET
COVE_SEAPRISM,36.9,-75.71,AERONET
Fort_McMurray,56.752306,-111.476139,AERONET
Elandsfontein,-26.245342,29.417572,AERONET
OHP_OBSERVATOIRE,43.935,5.71,AERONET
Tonopah_Airport,38.05044,-117.09052,AERONET
Caceres,39.478583,-6.343467,AERONET
Praia,14.947,-23.484,AERONET
SMART_POL,24.249321,55.612064,AERONET
Birdsville,-25.89893,139.34596,AERONET
Asia1,43.783333,87.65,AERONET
Taihu,31.421,120.215333,AERONET
Red_Mountain_Pass,37.907449,-107.710917,AERONET
Asmara,15.342864,38.922392,AERONET
Dunedin,-45.863937,170.513644,AERONET
Chilbolton,51.14446,-1.43698,AERONET
Hefei,31.904722,117.162222,AERONET
Trelew,-43.249806,-65.308611,AERONET
CEILAP-RG,-51.600503,-69.31925,AERONET
Hong_Kong_PolyU,22.303333,114.179722,AERONET
DMN_Maine_Soroa,13.216717,12.023067,AERONET
Taichung,24.106167,120.49133,AERONET
ICIPE-Mbita,-0.431525,34.206062,AERONET
Nairobi,-1.338882,36.8653,AERONET
Kibale,0.56045,30.3575,AERONET
Merredin,-31.493056,118.226389,AERONET
Ji_Parana_SE,-10.93425,-61.851517,AERONET
La_Paz,-16.539,-68.066467,AERONET
Tamanrasset_INM,22.79,5.53,AERONET
Tamanrasset_TMP,22.79,5.53,AERONET
USDA-BARC,39.03127,-76.93218,AERONET
Xinglong,40.396389,117.578333,AERONET
T2_MAX_MEX,20.010183,-98.9088,AERONET
Tampico_MAX_MEX,22.278283,-97.864167,AERONET
Tudor_Hill,32.264,-64.879,AERONET
Veracruz_MAX_MEX,19.144444,-96.186667,AERONET
Ras_El_Ain,31.670278,-7.599444,AERONET
Lulin,23.468611,120.873611,AERONET
EVK2-CNR,27.95775,86.814936,AERONET
Ny_Alesund,78.929433,11.86085,AERONET
Guam,13.430617,144.800783,AERONET
Adelaide_Site_7,-34.725067,138.656483,AERONET
Gandhi_College,25.871,84.127944,AERONET
Helsinki_Lighthouse,59.94897,24.92636,AERONET
Milyering,-22.02919,113.92308,AERONET
Richland,46.34,-119.28,AERONET
Chapais,49.822433,-74.9754,AERONET
EPA-NCU,24.967533,121.185483,AERONET
Sevastopol,44.615833,33.517333,AERONET
Smith_Island_CBF,37.969183,-76.02385,AERONET
Niamey,13.481389,2.172222,AERONET
Brussels,50.783332,4.35,AERONET
Muscat,23.606383,58.435667,AERONET
Lhasa,29.6455,91.032917,AERONET
Zvenigorod,55.695,36.775,AERONET
Epanomi,40.375,22.978,AERONET
SACOL,35.946,104.137083,AERONET
NAM_CO,30.772517,90.96245,AERONET
Univ_of_Houston,29.7177,-95.3416,AERONET
Al_Ain,24.242167,55.705167,AERONET
Mount_Chacaltaya,-16.350139,-68.1315,AERONET
Karachi,24.94574,67.13594,AERONET
Appledore_Island,42.987064,-70.615361,AERONET
Thompson_Farm,43.108772,-70.948344,AERONET
PKU_PEK,39.593,116.184,AERONET
Yufa_PEK,39.309,116.184,AERONET
City_GZ,23.081,113.158,AERONET
BackGarden_GZ,23.296,113.021,AERONET
Singapore,1.297667,103.780383,AERONET
White_Sands_HELSTF,32.634942,-106.338072,AERONET
Huang_Shan,30.13,118.15,AERONET
Frenchman_Flat,36.80928,-115.93479,AERONET
Lahore,31.47987,74.26406,AERONET
Sodankyla,67.36662,26.62957,AERONET
SANTA_CRUZ_UTEPSA,-17.767325,-63.200961,AERONET
Eilat,29.5025,34.9175,AERONET
USDA-Howard,39.0542,-76.8775,AERONET
Thule,76.516102,-68.769001,AERONET
Chiang_Mai,18.813333,98.986944,AERONET
PEARL,80.053611,-86.416944,AERONET
OPAL,79.990278,-85.939167,AERONET
NASA_Ames,37.419986,-122.056969,AERONET
OK_St_Univ,35.04564,-97.91734,AERONET
Porquerolles,43.001389,6.161389,AERONET
Puspiptek,-6.3556,106.664383,AERONET
Burjassot,39.507,-0.4202,AERONET
Dilar,37.062981,-3.385925,AERONET
La_Laguna,28.481944,-16.321111,AERONET
Mount_Gibbes,35.735207,-82.285712,AERONET
LA-TM,30.324,119.44,AERONET
Bucharest_Inoe,44.348311,26.02805,AERONET
Calipso_Strasburg,39.934467,-76.2193,AERONET
Calipso_Prt_Deposit,39.604,-76.116367,AERONET
Calipso_Price,39.097367,-75.959017,AERONET
Calipso_West_Denton,38.914961,-75.894331,AERONET
Calipso_Brookview,38.576022,-75.794308,AERONET
Calipso_Mardela_Spr,38.469083,-75.74795,AERONET
Calipso_Princess_An,38.21322,-75.68489,AERONET
Calipso_Ninetown_Rd,38.964983,-75.91,AERONET
Calipso_Poplar_Tree,38.8634,-77.414233,AERONET
Calipso_Sterling_PO,39.0012,-77.457567,AERONET
Calipso_Ashburn,39.0659,-77.476167,AERONET
Calipso_Peckman_Frm,39.938633,-77.750033,AERONET
OBERNAI,48.442778,7.5425,AERONET
Calipso_Zion,39.932389,-76.199,AERONET
Calipso_Perryville,39.560672,-76.072656,AERONET
Calipso_Kennedyvill,39.3055,-75.991983,AERONET
Calipso_Pine_Cove,39.238669,-75.969347,AERONET
Calipso_Bowers_Rd,39.193347,-75.955397,AERONET
Calipso_Ridgely,38.94863,-75.8815,AERONET
Calipso_WofDenton,38.89885,-75.862416,AERONET
Calipso_WillistonLk,38.82893,-75.8463,AERONET
Calipso_Harrison_Rd,38.63195,-75.771,AERONET
Calipso_NUFerry_Rd,38.34557,-75.69076,AERONET
Silpakorn_Univ,13.819308,100.041183,AERONET
Chiang_Mai_Met_Sta,18.771125,98.972467,AERONET
Songkhla_Met_Sta,7.184387,100.604583,AERONET
Calipso_Fincastle,39.050183,-77.47535,AERONET
Calipso_Braddock_Rd,38.82703,-77.408287,AERONET
Calipso_Kinchaloe,38.755423,-77.390121,AERONET
Calipso_W_Strasburg,39.94655,-76.231117,AERONET
Calipso_Church_Hill,39.147466,-75.981717,AERONET
Calipso_Tuckahoe,38.979173,-75.932939,AERONET
Calipso_Washtn_High,38.18005,-75.686733,AERONET
Calipso_W_Mardela,38.460833,-75.774633,AERONET
Calipso_Cooper_Rd,38.325469,-75.731586,AERONET
Calipso_Loudon_Rd,39.938933,-77.788517,AERONET
Calipso_Sanders_ES,39.038485,-77.510017,AERONET
Calipso_Westfield_H,38.887517,-77.464783,AERONET
Calipso_Ormand_MS,38.855649,-77.45463,AERONET
Hangzhou-ZFU,30.257233,119.727417,AERONET
Calipso_Flat_Iron,39.110825,-75.998673,AERONET
Calipso_White_Marsh,39.075915,-75.988634,AERONET
Calipso_Crouse_Mill,38.958531,-75.95163,AERONET
Calipso_Hillsboro,38.915783,-75.939151,AERONET
Calipso_Hurlock,38.61916,-75.84624,AERONET
Calipso_Vienna,38.493536,-75.816541,AERONET
Gual_Pahari,28.426086,77.15047,AERONET
Yaqui,27.280833,-109.912,AERONET
Abisko,68.35,18.817,AERONET
Ragged_Point,13.165018,-59.432035,AERONET
Issyk-Kul,42.622778,76.983056,AERONET
Calipso_Morgnec_Rd,39.23567,-76.03074,AERONET
Calipso_Church_H_Rd,39.132667,-75.999167,AERONET
Calipso_Dean_Rd,39.00275,-75.9575,AERONET
Calipso_Hillsboro_E,38.9169,-75.932533,AERONET
Black_Forest_AMF,48.54005,8.396867,AERONET
Autilla,41.997222,-4.603056,AERONET
Suffield,50.28155,-111.130771,AERONET
Kirtland_AFB,34.95081,-106.507403,AERONET
CRPSM_Malindi,-2.996,40.1945,AERONET
Leicester,52.61931,-1.12231,AERONET
Hangzhou_City,30.289633,120.156917,AERONET
South_Pole_Obs_NOAA,-90.0,70.3,AERONET
EIM-Sindos,40.689717,22.799667,AERONET
Marambio,-64.239996,-56.625244,AERONET
Le_Fauga,43.38423,1.2846,AERONET
Sinhgad,18.366667,73.75,AERONET
Trivandrum,8.533333,76.866667,AERONET
Ahmedabad,23.016667,72.516667,AERONET
Zinder_DMN,13.775417,8.9841,AERONET
Iqaluit,63.747575,-68.542997,AERONET
Kandahar,31.508611,65.847778,AERONET
Kangerlussuaq,66.9958,-50.6214,AERONET
Jingtai,37.333333,104.1,AERONET
Zhangye,39.078889,100.275556,AERONET
Vishkhapatnam,17.72395,83.326933,AERONET
UAHuntsville,34.72533,-86.64473,AERONET
Nainital,29.35883,79.45827,AERONET
Pantnagar,29.046339,79.520889,AERONET
Bareilly,28.38996,79.43696,AERONET
Mobile_N_050608,26.50624,80.43907,AERONET
Mobile_C_050608,26.30289,80.48859,AERONET
Mobile_S_050608,26.12513,80.53282,AERONET
Bushland,35.18678,-102.09384,AERONET
Mobile_Kanpur_West,26.419177,80.123238,AERONET
Mobile_Kanpur_East,26.458519,80.439397,AERONET
Chitrakoot,25.14788,80.85518,AERONET
Mobile_DDun_051308W,30.234656,77.948764,AERONET
Mobile_N_051308W,26.99431,78.77762,AERONET
Mobile_S_051308W,26.636032,78.869934,AERONET
Mobile_N_051508E,26.773544,81.928933,AERONET
Mobile_S_051508E,26.242848,82.061369,AERONET
Mobile_N_052208,26.50987,80.4643,AERONET
Mobile_C_052208,26.31069,80.51499,AERONET
Saint_Mandrier,43.066944,5.944167,AERONET
Bozeman,45.662204,-111.045013,AERONET
Mobile_S_052908W,26.6637,78.8989,AERONET
Mobile_N_052908W,26.9524,78.8266,AERONET
Mobile_Kanpur_South,26.352916,80.300721,AERONET
Mobile_Kanpur_SE,26.378525,80.41811,AERONET
Mobile_N_053108E,26.76874,81.97021,AERONET
Mobile_S_053108E,26.216392,82.106651,AERONET
Mobile_Kanpur_W2,26.4185,80.12172,AERONET
Mobile_N_060708,26.530687,80.505745,AERONET
Mobile_C_060708,26.449369,80.526795,AERONET
Mobile_S_060708,26.105807,80.610912,AERONET
Kanzelhohe_Obs,46.677232,13.901269,AERONET
Valladolid_Sci,41.6562,-4.7148,AERONET
Ersa,43.003669,9.359289,AERONET
Mobile_N_061408W,26.92797,78.8578,AERONET
Mobile_S_061408W,26.68315,78.9188,AERONET
Mobile_N_061608E,26.76985,81.98118,AERONET
Mobile_N_062308,26.513011,80.478321,AERONET
Mobile_C_062308,26.30709,80.52958,AERONET
Mobile_S_062308,26.147783,80.570527,AERONET
Kanpur_Central_RR,26.455467,80.35062,AERONET
Panki_Powerplant,26.478837,80.256383,AERONET
Baneasa,44.511333,26.077806,AERONET
Helsinki,60.203733,24.96065,AERONET
Paposo,-25.007167,-70.450111,AERONET
Kaiping,22.3152,112.5386,AERONET
Camaguey,21.4223,-77.8499,AERONET
El_Segundo,33.9125,-118.3823,AERONET
Dayton,39.775977,-84.109618,AERONET
Arcachon,44.663528,-1.163222,AERONET
Wytham_Woods,51.770278,-1.3325,AERONET
Zhongshan_Univ,23.06,113.39,AERONET
Vechernaya_Hill,-67.66,46.158,AERONET
Manila_Observatory,14.63525,121.07784,AERONET
Mobile_N_011509_ND,28.42123,76.91933,AERONET
Mobile_S_011509_ND,28.34824,76.93955,AERONET
Ubon_Ratchathani,15.245518,104.871011,AERONET
Malaga,36.715242,-4.478153,AERONET
Shouxian,32.558383,116.78195,AERONET
Seysses,43.503333,1.259722,AERONET
Oukaimeden,31.208793,-7.864486,AERONET
IIT_KGP_EXT_Kolkata,22.574,88.418,AERONET
Utsteinen,-71.95,23.333333,AERONET
Jaipur,26.905817,75.806217,AERONET
Hetauda,27.42835,85.030933,AERONET
Yellowknife_Aurora,62.4513,-114.37625,AERONET
Langtang,28.012233,85.492517,AERONET
Kuwait_Airport,29.242,47.972,AERONET
Lanzhou_City,36.04805,103.8534,AERONET
Graciosa,39.091111,-28.029722,AERONET
Birkenes,58.38845,8.25231,AERONET
Bandung,-6.888417,107.61,AERONET
Zinder_Airport,13.776683,8.990233,AERONET
Kathmandu_Univ,27.601067,85.538333,AERONET
LISCO,40.954517,-73.341767,AERONET
UMBC,39.254628,-76.709353,AERONET
SAGRES,37.047706,-8.873517,AERONET
Univ_of_Lethbridge,49.681672,-112.868967,AERONET
Easton_Airport,38.80745,-76.07257,AERONET
Tuz_Golu,38.749444,33.336111,AERONET
Kelowna_UAS,49.941294,-119.400111,AERONET
NCAR,40.03753,-105.24277,AERONET
Eforie,44.075,28.632222,AERONET
IASBS,36.705167,48.507111,AERONET
QOMS_CAS,28.365,86.948056,AERONET
Buesum,54.13225,8.878797,AERONET
TUBITAK_UZAY_Ankara,39.891,32.778,AERONET
Ittoqqortoormiit,70.4848,-21.9512,AERONET
Lucinda,-18.5198,146.3861,AERONET
Salon_de_Provence,43.605556,5.120278,AERONET
Zhongshan,22.515833,113.383333,AERONET
ND_Marbel_Univ,6.496011,124.842531,AERONET
WaveCIS_Site_CSI_6,28.866667,-90.483333,AERONET
Goldstone,35.233333,-116.791667,AERONET
Tinian,15.073969,145.627597,AERONET
Pokhara,28.186643,83.97518,AERONET
Apra_Harbor,13.420442,144.663103,AERONET
Baengnyeong,37.966111,124.630278,AERONET
Red_River_Delta,20.72853,106.1277,AERONET
Huelva,37.0163,-6.5687,AERONET
Brisbane-Uni_of_QLD,-27.497083,153.013611,AERONET
Sable_Island,43.933,-60.01,AERONET
LSU,30.406778,-91.183883,AERONET
CalTech,34.13673,-118.126167,AERONET
Bach_Long_Vy,20.133321,107.733339,AERONET
Yuma,32.644138,-114.58278,AERONET
CUT-TEPAK,34.674806,33.04275,AERONET
McClellan_AFB,38.667777,-121.399444,AERONET
Tiksi,71.586917,128.921417,AERONET
Dushanbe,38.553264,68.857911,AERONET
Appalachian_State,36.2146,-81.6938,AERONET
Aubiere_LAMP,45.76096,3.111072,AERONET
Frioul,43.266111,5.293333,AERONET
Manus,-2.06,147.425,AERONET
ARM_Darwin,-12.425,130.891,AERONET
CLUJ_UBB,46.768333,23.551389,AERONET
Lugansk,48.5704,39.36472,AERONET
DRAGON_CHASE,38.978612,-77.080002,AERONET
DRAGON_RCKMD,39.06556,-77.09622,AERONET
DRAGON_OLNES,39.149148,-77.068267,AERONET
DRAGON_SPBRK,39.0581,-77.0058,AERONET
DRAGON_TKMPR,38.995278,-76.997222,AERONET
DRAGON_CLLGP,38.9911,-76.9086,AERONET
DRAGON_LAREL,39.0808,-76.855,AERONET
DRAGON_LAUMD,39.1428,-76.8592,AERONET
DRAGON_BOWEM,38.9747,-76.7506,AERONET
DRAGON_ARNCC,39.1589,-76.7208,AERONET
DRAGON_ANNEA,39.1647,-76.6247,AERONET
DRAGON_CTNVL,39.275833,-76.771944,AERONET
DRAGON_BLTIM,39.263145,-76.651066,AERONET
DRAGON_ELLCT,39.2661,-76.861603,AERONET
Minqin,38.607,102.959,AERONET
DRAGON_CLRST,39.20541,-76.94445,AERONET
Zouerate-Fennec,22.75,-12.483333,AERONET
Gloria,44.59997,29.35967,AERONET
Steamboat_Springs,40.46376,-106.81699,AERONET
Bari_University,41.108327,16.883983,AERONET
NEON-Boulder,40.00787,-105.26821,AERONET
Oujda,34.65331,-1.89846,AERONET
Timisoara,45.74626,21.22736,AERONET
Gainesville_Airport,29.695833,-82.261,AERONET
Ordway-Swisher,29.69797,-81.988106,AERONET
Rio_de_Janeiro_UFRJ,-22.857306,-43.233806,AERONET
Yeomsan-Myeon,35.23666,126.303012,AERONET
NGHIA_DO,21.04778,105.79964,AERONET
Bambey-ISRA,14.708567,-16.476733,AERONET
Bordj_Badji_Mokhtar,21.38,0.92,AERONET
Vientiane,17.99228,102.569642,AERONET
San_Nicolas_Vandal,33.262214,-119.536711,AERONET
CASLEO,-31.798815,-69.295685,AERONET
Manaus_EMBRAPA,-2.890528,-59.969778,AERONET
USC_SEAPRISM,33.56371,-118.11782,AERONET
Tabernas_PSA-DLR,37.09076,-2.35818,AERONET
Yonsei_University,37.56443,126.93479,AERONET
Georgia_Tech,33.780202,-84.399537,AERONET
Gageocho_Station,33.941991,124.592912,AERONET
Calern_OCA,43.752207,6.923153,AERONET
Pretoria_CSIR-DPSS,-25.756611,28.279722,AERONET
DRAGON_Padonia,39.462036,-76.631669,AERONET
DRAGON_Essex,39.310943,-76.474486,AERONET
DRAGON_Edgewood,39.409834,-76.296352,AERONET
DRAGON_Aldino,39.563433,-76.203932,AERONET
DRAGON_FairHill,39.701435,-75.860059,AERONET
DRAGON_Beltsville,39.054091,-76.877491,AERONET
DRAGON_PATUX,38.827168,-76.70938,AERONET
DRAGON_UMRLB,38.891262,-76.814106,AERONET
DRAGON_BLTNR,39.2156,-76.6186,AERONET
DRAGON_SHADY,38.840658,-76.506108,AERONET
DRAGON_ARNLS,39.058488,-76.512926,AERONET
DRAGON_WSTFD,39.301577,-76.946248,AERONET
DRAGON_ABERD,39.515103,-76.16523,AERONET
DRAGON_BLLRT,39.389385,-76.578242,AERONET
DRAGON_BTMDL,39.238826,-76.441601,AERONET
DRAGON_CPSDN,39.110656,-76.462915,AERONET
DRAGON_BLDND,39.258315,-76.519504,AERONET
DRAGON_ONNGS,39.387756,-76.81912,AERONET
DRAGON_BLTCC,39.362201,-76.688429,AERONET
DRAGON_MNKTN,39.572926,-76.652318,AERONET
DRAGON_FLLST,39.522366,-76.413318,AERONET
DRAGON_BATMR,39.398913,-76.47555,AERONET
DRAGON_EDCMS,38.922218,-76.560012,AERONET
Tomsk_22,56.417,84.074,AERONET
Muztagh_Ata,38.408222,75.038764,AERONET
Montsec,42.051417,0.729689,AERONET
Jomsom,28.778214,83.7142,AERONET
Farmington_RSVP,36.797383,-108.479991,AERONET
Kuching,1.490556,110.348611,AERONET
DRAGON_WileyFord,39.610446,-78.773648,AERONET
DRAGON_Bainbridge,39.606044,-76.074122,AERONET
DRAGON_PineyOrchard,39.060781,-76.719202,AERONET
DRAGON_KentIsland,38.9793,-76.307864,AERONET
ARM_Nainital,29.35883,79.45827,AERONET
DRAGON_BelAir,39.500014,-76.263098,AERONET
DRAGON_Pasadena,39.111638,-76.45544,AERONET
DRAGON_Pylesville,39.67515,-76.405349,AERONET
DRAGON_EaglePoint,39.397778,-76.27,AERONET
DRAGON_Worton,39.285436,-76.091633,AERONET
Bolzano,46.4569,11.33,AERONET
Marbella_San_Pedro,36.486309,-4.993439,AERONET
Edinburgh,55.923967,-3.17915,AERONET
Bari_Waterfront,41.1168,16.8934,AERONET
Loskop_Dam,-25.407575,29.351624,AERONET
Tuz_Golu_2,38.837,33.449,AERONET
Key_Biscayne2,25.731966,-80.16333,AERONET
Palma_de_Mallorca,39.5533,2.6251,AERONET
Masdar_Institute,24.4416,54.6166,AERONET
ARM_Gan_Island,-0.690597,73.149896,AERONET
Litang,29.9763,100.26185,AERONET
Magurele_Inoe,44.348292,26.030703,AERONET
Grand_Forks,47.91175,-97.32545,AERONET
UNC-Bogota,4.636933,-74.0808,AERONET
USM_Penang,5.35838,100.30231,AERONET
NEON17-SJER,37.090419,-119.722136,AERONET
NhaTrang,12.204722,109.205556,AERONET
Henties_Bay,-22.09506,14.25974,AERONET
Chiba_University,35.6247,140.1038,AERONET
Calhau,16.863889,-24.867222,AERONET
DRAGON_Fukue,32.752,128.682,AERONET
DRAGON_Fukuoka,33.524,130.475,AERONET
DRAGON_Matsue,35.48,133.01,AERONET
DRAGON_Nishiharima,35.026,134.336,AERONET
DRAGON_Mt_Rokko,34.757,135.23,AERONET
DRAGON_Mt_Ikoma,34.6798,135.678667,AERONET
DRAGON_Kobe,34.72,135.291,AERONET
DRAGON_Osaka-North,34.774,135.51,AERONET
DRAGON_Osaka-South,34.5435,135.503867,AERONET
DRAGON_Nara,34.688,135.828,AERONET
DRAGON_Kyoto,35.026,135.781,AERONET
DRAGON_Tsukuba,36.050556,140.120278,AERONET
Sandia_NM_PSEL,35.054583,-106.540069,AERONET
Fresno_2,36.78537,-119.77302,AERONET
Bure_OPE,48.5625,5.505,AERONET
DRAGON_Fukue_2,32.672,128.817,AERONET
DRAGON_Fukue_3,32.6,128.745,AERONET
DRAGON_Kunsan_NU,35.941072,126.683008,AERONET
DRAGON_Hankuk_UFS,37.33883,127.26582,AERONET
DRAGON_Pusan_NU,35.235354,129.082493,AERONET
DRAGON_Kongju_NU,36.470623,127.140023,AERONET
DRAGON_Kyungil_Univ,36.038648,128.788442,AERONET
DRAGON_GangneungWNU,37.771,128.867,AERONET
DRAGON_Mokpo_NU,34.91342,126.43736,AERONET
DRAGON_Korea_Univ,37.58514,127.02507,AERONET
DRAGON_Kohriyama,37.361042,140.3829,AERONET
Univ_of_Nevada-Reno,39.540867,-119.814033,AERONET
Coruna,43.363,-8.4208,AERONET
CEILAP-Bariloche,-41.146944,-71.163333,AERONET
Hada_El-Sham,21.802,39.7289,AERONET
Hong_Kong_Sheung,22.4833,114.1166,AERONET
UPRM_Lidar_Lab,18.210131,-67.140125,AERONET
Cairo_EMA_2,30.080767,31.290067,AERONET
Ouarzazate,30.928367,-6.912867,AERONET
NEON_CVALLA,40.16063,-105.16725,AERONET
DRAGON_Sinjeong,37.52341,126.85863,AERONET
DRAGON_Soha,37.45213,126.8847,AERONET
DRAGON_Bokjeong,37.45699,127.13123,AERONET
DRAGON_Sanggye,37.65885,127.06845,AERONET
DRAGON_Guwol,37.44967,126.72403,AERONET
Luang_Namtha,20.9311,101.4162,AERONET
KAUST_Campus,22.304833,39.102833,AERONET
Son_La,21.3322,103.905151,AERONET
GOT_Seaprism,9.2862,101.4123,AERONET
DRAGON_Anmyeon,36.53863,126.33002,AERONET
DRAGON_NIER,37.56893,126.63971,AERONET
DRAGON_Konkuk_Univ,37.54205,127.079774,AERONET
DRAGON_Osaka_Center,34.668477,135.530894,AERONET
Tai_Ping,10.3755,114.362,AERONET
Madrid,40.4519,-3.72395,AERONET
Bayfordbury,51.77632,-0.09624,AERONET
Tizi_Ouzou,36.698611,4.055833,AERONET
Iasi_LOASL,47.193056,27.555556,AERONET
U_of_Wisconsin_SSEC,43.072492,-89.411354,AERONET
Kyiv-AO,50.4523,30.498,AERONET
Bhola,22.226675,90.756415,AERONET
ARM_Barnstable_MA,41.669589,-70.290061,AERONET
Tahir,5.411,100.1967,AERONET
Jambi,-1.632445,103.641563,AERONET
DRAGON_Garland,36.78537,-119.77302,AERONET
Pontianak,0.07538,109.19086,AERONET
El_Nido_Airport,11.2051,119.4135,AERONET
NEON_GrandJunction,39.1271,-108.5355,AERONET
NEON_Ivanpah,35.550655,-115.38178,AERONET
Zaragoza,41.6334,-0.88235,AERONET
Gorongosa,-18.978417,34.35075,AERONET
Las_Galletas,28.0152,-16.6545,AERONET
Dhaka_University,23.72839,90.39819,AERONET
Lake_Lefroy,-31.255,121.705,AERONET
FZJ-JOYCE,50.908333,6.413056,AERONET
DRAGON_Permatang_DL,5.277875,100.271253,AERONET
DRAGON_PayaTerubong,5.375964,100.275847,AERONET
DRAGON_KampungBharu,5.341589,100.463158,AERONET
Badajoz,38.882808,-7.01082,AERONET
Gangneung_WNU,37.771,128.867,AERONET
Kyungil_University,36.071667,128.82361,AERONET
Hankuk_UFS,37.33883,127.26582,AERONET
Osaka-North,34.774,135.51,AERONET
Korea_University,37.58514,127.02507,AERONET
Kobe,34.72,135.291,AERONET
Fukue,32.752,128.682,AERONET
Fukuoka,33.524,130.475,AERONET
Nara,34.688,135.828,AERONET
Pusan_NU,35.235354,129.082493,AERONET
Jakarta,-6.155695,106.841687,AERONET
DRAGON_Yishun_ITE,1.434638,103.844876,AERONET
DRAGON_Pandan_Resrv,1.318808,103.742362,AERONET
DRAGON_Temasek_Poly,1.344821,103.930621,AERONET
DRAGON_MEWR_Central,1.310906,103.836486,AERONET
DRAGON_St_Johns_Is,1.21795,103.849615,AERONET
San_Giuliano,42.285556,9.519167,AERONET
ARM_Highlands_MA,42.030478,-70.049317,AERONET
Cerro_Poyos,37.108869,-3.487261,AERONET
DRAGON_Jalan_ChainF,5.400542,100.381339,AERONET
DRAGON_Pondok_Upeh,5.33325,100.22661,AERONET
Montesoro_Bastia,42.671983,9.43505,AERONET
Valladolid,41.6636,-4.70583,AERONET
Palangkaraya,-2.22799,113.94624,AERONET
Dunhuang_LZU,40.49237,94.95503,AERONET
DRAGON_UiTM,5.38313,100.41631,AERONET
Yevpatoria,45.2147,33.1422,AERONET
Medellin,6.260672,-75.577914,AERONET
NEON_HighParkFire,40.624173,-105.335581,AERONET
NEON_HarvardForest,42.533074,-72.189899,AERONET
Porto_Velho_UNIR,-8.837083,-63.939983,AERONET
Alboran,35.939625,-3.35297,AERONET
Murcia,38.001,-1.1707,AERONET
Ciutadella_Menorca,39.985279,3.836864,AERONET
DRAGON_Gwangju_GIST,35.228278,126.843139,AERONET
DRAGON_Bakersfield,35.331506,-119.000008,AERONET
DRAGON_Shafter,35.50361,-119.2725,AERONET
DRAGON_Clovis,36.81931,-119.71639,AERONET
DRAGON_Corcoran,36.10222,-119.56583,AERONET
DRAGON_Drummond,36.70556,-119.74139,AERONET
DRAGON_Hanford,36.31572,-119.64323,AERONET
DRAGON_Madera_City,36.953162,-120.034418,AERONET
DRAGON_Parlier,36.59744,-119.50369,AERONET
DRAGON_Tranquility,36.63434,-120.38234,AERONET
UH_Coastal_Center,29.3883,-95.0425,AERONET
Donetsk,48.020833,37.809444,AERONET
Yen_Bai,21.70495,104.86894,AERONET
Kathmandu-Bode,27.68,85.39,AERONET
DRAGON_Porterville,36.03179,-119.05505,AERONET
DRAGON_Visalia,36.31411,-119.39301,AERONET
DRAGON_Huron,36.20615,-120.10545,AERONET
DRAGON_Arvin,35.237959,-118.78781,AERONET
Doi_Ang_Khang,19.93245,99.0454,AERONET
Beijing-CAMS,39.93333,116.31667,AERONET
Mt_WLG,36.28333,100.89583,AERONET
Lumbini,27.49,83.28,AERONET
MetObs_Lindenberg,52.209275,14.12087,AERONET
Gozo,36.034139,14.264694,AERONET
Ben_Salem,35.55055,9.914003,AERONET
Heng-Chun,22.054742,120.6995,AERONET
HOPE-Krauthausen,50.8796,6.4145,AERONET
HOPE-Hambach,50.8972,6.4639,AERONET
HOPE-Inselhombroich,51.1514,6.6436,AERONET
HOPE-RWTH-Aachen,50.7777,6.0606,AERONET
CENER,42.816424,-1.602187,AERONET
HohenpeissenbergDWD,47.8019,11.0119,AERONET
SEARCH-Centreville2,32.90289,-87.24968,AERONET
Fowlers_Gap,-31.0863,141.70082,AERONET
Santa_Monica_Colg,34.01685,-118.47113,AERONET
Beijing_RADI,40.0048,116.3786,AERONET
DRAGON_Conroe,30.350278,-95.425,AERONET
DRAGON_NW_Harris_CO,30.039444,-95.673889,AERONET
DRAGON_Aldine,29.901037,-95.326125,AERONET
DRAGON_West_Houston,29.833056,-95.656944,AERONET
DRAGON_UH_W_Liberty,30.0583,-94.9781,AERONET
DRAGON_Clinton,29.733611,-95.2575,AERONET
DRAGON_UH_Sugarland,29.5741,-95.652,AERONET
DRAGON_Channel_View,29.8025,-95.125556,AERONET
DRAGON_Deer_Park,29.670046,-95.128485,AERONET
DRAGON_SeabrookPark,29.583047,-95.015544,AERONET
DRAGON_ManvelCroix,29.520427,-95.392522,AERONET
DRAGON_Galveston,29.254474,-94.861289,AERONET
DRAGON_Smith_Point,29.546111,-94.786969,AERONET
SEARCH-Centreville,32.90289,-87.24968,AERONET
SEARCH-Yorkville,33.92833,-85.04555,AERONET
SEARCH-OLF,30.54997,-87.37531,AERONET
Galata_Platform,43.044624,28.19319,AERONET
Dolly_Sods,39.11,-79.43,AERONET
Boyd_County_MS,38.427461,-82.700033,AERONET
IMPROVE-MammothCave,37.1318,-86.1479,AERONET
St_Louis_University,38.636342,-90.231552,AERONET
Mingo,36.9717,-90.1432,AERONET
Upper_Buffalo,35.8258,-93.203,AERONET
Cape_Romain,32.941,-79.6572,AERONET
EPA-Res_Triangle_Pk,35.88,-78.87,AERONET
Barbados_SALTRACE,13.148513,-59.624839,AERONET
Itajuba,-22.41325,-45.452389,AERONET
Caldwell_Parish_HS,32.060303,-92.096277,AERONET
SP_Bayboro,27.76155,-82.633,AERONET
Leland_HS,33.402128,-90.89285,AERONET
Cap_d_En_Font,39.825722,4.208167,AERONET
Tunis_Carthage,36.838719,10.199781,AERONET
ASPET,43.025,0.795,AERONET
Narsarsuaq,61.155952,-45.419379,AERONET
Cagliari,39.281,9.052333,AERONET
Yushan,23.487419,120.959199,AERONET
Carloforte,39.139908,8.309875,AERONET
Exeter_MO,50.728519,-3.475167,AERONET
Tallahassee,30.445833,-84.29935,AERONET
ORS_Hermosillo,29.0275,-111.145556,AERONET
CEILAP-Comodoro,-45.792153,-67.462875,AERONET
Fort_McKay,57.1835,-111.64,AERONET
White_Salmon,45.76666,-121.5125,AERONET
NEON_Sterling,40.461903,-103.029297,AERONET
Chiayi,23.495975,120.495975,AERONET
Puli,23.96856,120.96689,AERONET
HOPE-Melpitz,51.525525,12.927601,AERONET
Strzyzow,49.8786,21.8613,AERONET
DRAGON_Galveston_DP,29.254474,-94.861289,AERONET
Calipso_Carthage,32.06434,-94.06627,AERONET
Calipso_Sabine_Frst,31.6073,-93.867433,AERONET
Baskin,32.28222,-91.73866,AERONET
ARM_Graciosa,39.09109,-28.02917,AERONET
ARM_Oliktok_AK,70.4995,-149.88,AERONET
Cat_Spring,29.82905,-96.325617,AERONET
NW_Chapel_Hill,35.9712,-79.0934,AERONET
James_Res_Center,35.872594,-76.659176,AERONET
Orlean_Bricy,47.986667,1.761111,AERONET
IAOCA-KRSU,42.46383,78.52895,AERONET
NEON-CASTNET,40.278572,-105.542538,AERONET
NEON-CPER,40.812444,-104.744238,AERONET
NEON-HQ,40.016681,-105.245625,AERONET
NEON-RailroadValley,38.497,-115.691,AERONET
NEON-SoaprootSaddle,37.037434,-119.281139,AERONET
Ieodo_Station,32.122953,125.182447,AERONET
LAQUILA_Coppito,42.368386,13.350636,AERONET
Noumea,-22.301944,166.444167,AERONET
Toulouse_MF,43.57261,1.37432,AERONET
Bujumbura,-3.38,29.383833,AERONET
Martova,49.936,36.953,AERONET
CEILAP-Neuquen,-38.95222,-68.13666,AERONET
ARM_HyytialaFinland,61.843536,24.287847,AERONET
ARM_Manacapuru,-3.212972,-60.598056,AERONET
Changchun,44.00014,125.3957,AERONET
AOE_Baotou,40.8517,109.6288,AERONET
Mongu_Inn,-15.266667,23.134333,AERONET
Karunya_University,10.9353,76.7441,AERONET
Progress,-69.37778,76.38861,AERONET
El_Farafra,27.058,27.990167,AERONET
Maeson,19.83046,99.17069,AERONET
Zeebrugge-MOW1,51.362,3.12,AERONET
Fuguei_Cape,25.297452,121.537859,AERONET
Santiago_Beauchef,-33.457222,-70.661666,AERONET
Peterhof,59.881,29.826,AERONET
SEGC_Lope_Gabon,-0.20155,11.60082,AERONET
DRAGON_Chatfield_Pk,39.5345,-105.070365,AERONET
DRAGON_DenverLaCasa,39.77949,-105.00518,AERONET
DRAGON_Fort_Collins,40.592795,-105.14141,AERONET
DRAGON_NREL-Golden,39.743725,-105.17799,AERONET
DRAGON_Platteville,40.182765,-104.7261,AERONET
DRAGON_Boulder,39.991859,-105.261325,AERONET
DRAGON_Niwot_Ridge,40.031795,-105.533313,AERONET
DRAGON_Welch,39.63878,-105.13951,AERONET
DRAGON_Weld_Co_Twr,40.38636,-104.737445,AERONET
DRAGON_Aurora_East,39.63854,-104.56913,AERONET
XuZhou-CUMT,34.21667,117.14167,AERONET
Maggie_Valley,35.519816,-83.09473,AERONET
Paardefontein,-25.495986,28.374719,AERONET
Sigma_Space_Corp,38.953,-76.836472,AERONET
Shijiazhuang-SZF,38.01667,114.45833,AERONET
Shijiazhuang-CHEY,38.0,114.55,AERONET
KITcube_Masada,31.322547,35.372297,AERONET
Lingshan_Mountain,40.0537,115.4962,AERONET
Finokalia-FKL,35.337712,25.669762,AERONET
DRAGON_Rocky_Flats,39.912795,-105.188575,AERONET
American_Samoa,-14.2472,-170.5644,AERONET
Gobabeb,-23.561619,15.041058,AERONET
Medenine-IRA,33.499633,10.642547,AERONET
Berlin_FUB,52.4575,13.310333,AERONET
Tuz_Golu_3,38.792469,33.464678,AERONET
Easton-MDE,38.794972,-76.08425,AERONET
Durban_UKZN,-29.817233,30.944011,AERONET
NEON_Bartlett,44.063881,-71.287203,AERONET
NEON_Harvard,42.5369,-72.172661,AERONET
Sirmione_Museo_GC,45.500278,10.605833,AERONET
NEON-Disney,28.125039,-81.4362,AERONET
NEON_OSBS,29.689269,-81.993431,AERONET
USGS_Flagstaff_ROLO,35.21484,-111.63442,AERONET
Raciborz,50.0831,18.1917,AERONET
UdeConcepcion-CEFOP,-36.84278,-73.02531,AERONET
Toyama,36.699,137.187,AERONET
Socheongcho,37.423133,124.738039,AERONET
NEON_RMNP,40.2759,-105.545972,AERONET
NEON_SCBI,38.892919,-78.1395,AERONET
NEON_UNDE,46.233881,-89.53725,AERONET
NEON_OAES,35.41059,-99.05879,AERONET
Nong_Khai,17.8772,102.71671,AERONET
Nicosia,35.140628,33.381353,AERONET
KIOST_Ansan,37.285983,126.831667,AERONET
Blyth_NOAH,55.146399,-1.420859,AERONET
NEON_TALL,32.950461,-87.393269,AERONET
Huancayo-IGP,-12.0402,-75.3209,AERONET
Thornton_C-power,51.5325,2.955278,AERONET
Poprad-Ganovce,49.035,20.322,AERONET
AgiaMarina_Xyliatou,35.038,33.0577,AERONET
NEON_ORNL,35.964128,-84.282588,AERONET
Taylor_Ranch_TWRS,45.1035,-114.84995,AERONET
NEON_ONAQ,40.177589,-112.452439,AERONET
Wallops_ACHIEVE,37.933486,-75.471,AERONET
UNC-Gaitan,4.31068,-72.3518,AERONET
NEON_KONZ,39.10077,-96.56309,AERONET
KITcube_Karlsruhe,49.0933,8.4279,AERONET
Melpitz,51.525525,12.927601,AERONET
NEON_WOOD,47.128228,-99.241356,AERONET
Amiaz,31.067081,35.341975,AERONET
Shizafon,30.112539,35.008966,AERONET
Simonstown_IMT,-34.19272,18.44567,AERONET
NEON_MOAB,38.248331,-109.388269,AERONET
Shagaya_Park,29.209072,47.060528,AERONET
Camborne_MO,50.21782,-5.32656,AERONET
Pagosa_Springs,37.270278,-107.050258,AERONET
Makassar,-4.99768,119.57227,AERONET
ARM_McMurdo,-77.848889,166.729722,AERONET
ARM_WAIS,-79.470556,-112.083333,AERONET
Sorong,-0.8746,131.2677,AERONET
NEON_MLBS,37.378306,-80.524836,AERONET
Douliu,23.7117,120.5448,AERONET
USC_SEAPRISM_2,33.56371,-118.11782,AERONET
Hokkaido_University,43.0755,141.3407,AERONET
Kuwait_Inst_Sci_Res,29.337914,47.906453,AERONET
Rome_ESA_ESRIN,41.826667,12.671833,AERONET
Santa_Rosa,10.8415,-85.615917,AERONET
Cachoeira_Paulista,-22.689,-45.006,AERONET
Aras_de_los_Olmos,39.945,-1.1016,AERONET
Weizmann_Institute,31.907235,34.810531,AERONET
Windhoek-NUST,-22.56591,17.07304,AERONET
Paracou,5.266944,-52.925833,AERONET
Upington,-28.379,21.156,AERONET
Bose_Institute,27.031467,88.261403,AERONET
NEON_SERC,38.890117,-76.560017,AERONET
Bukit_Kototabang,-0.20194,100.31805,AERONET
NEON_UKFS,39.040431,-95.19215,AERONET
NEON_LENO,31.853881,-88.161219,AERONET
Amazon_ATTO_Tower,-2.144117,-58.999867,AERONET
Koforidua_ANUC,6.109408,-0.302058,AERONET
NEON_HEAL,63.875689,-149.213339,AERONET
Loftus_MO,54.5627,-0.861733,AERONET
Watnall_MO,53.005652,-1.250958,AERONET
Potchefstroom,-26.69,27.091,AERONET
Natal,-5.8415,-35.1995,AERONET
ORS_UNAM_ISNP,19.399467,-99.203683,AERONET
Napoli_CeSMA,40.836842,14.306567,AERONET
Windpoort,-19.365556,15.482778,AERONET
Tsumkwe,-19.616667,20.4425,AERONET
Bonanza,-21.825556,19.590278,AERONET
HESS,-23.273,16.502944,AERONET
Lubango,-14.958,13.445,AERONET
Namibe,-15.159,12.178,AERONET
KORUS_Taehwa,37.31248,127.31033,AERONET
AAQ1_SK_Osan,37.087222,127.0257,AERONET
KORUS_Iksan,35.9622,127.0052,AERONET
KORUS_UNIST_Ulsan,35.5819,129.1897,AERONET
KORUS_Kyungpook_NU,35.889989,128.606416,AERONET
KORUS_Olympic_Park,37.52165,127.12418,AERONET
Niigata,37.846,138.942,AERONET
KORUS_Daegwallyeong,37.68712,128.75872,AERONET
Lamezia_Terme,38.8764,16.2321,AERONET
NEON_GUAN,17.96955,-66.8687,AERONET
KORUS_NIER,37.56893,126.63971,AERONET
KORUS_Mokpo_NU,34.91342,126.43736,AERONET
Bakersfield,35.331506,-119.000008,AERONET
Alishan,23.50844,120.81341,AERONET
Lake_Erie,41.8256,-83.1936,AERONET
EastMalling_MO,51.29,0.44,AERONET
KORUS_Baeksa,37.41156,127.5691,AERONET
KORUS_Songchon,37.33849,127.48946,AERONET
SONET_Harbin,45.705,126.614,AERONET
SONET_Nanjing,32.115,118.957,AERONET
SONET_Shanghai,31.284,121.481,AERONET
SONET_Zhoushan,29.994,122.188,AERONET
SONET_Xingtai,37.182,114.36,AERONET
KITcube_Save,8.000928,2.427925,AERONET
SONET_Hefei,31.904722,117.162222,AERONET
NASA_KSC,28.463763,-80.663476,AERONET
Santo_Pekoa,-15.508,167.219,AERONET
Rhyl_MO,53.25929,-3.50859,AERONET
Modesto,37.64217,-120.99422,AERONET
St_Helena,-15.9424,-5.6673,AERONET
POLWET_Rzecin,52.762019,16.309589,AERONET
Santiago_Beauchef_2,-33.457222,-70.661666,AERONET
Albergue_UGR,37.095598,-3.386989,AERONET
ARM_Ascension_Is,-7.966964,-14.349806,AERONET
ARM_Macquarie_Is,-54.499561,158.934581,AERONET
Doi_Inthanon,18.59,98.485556,AERONET
Vienna_UNIVIE,48.221667,16.355833,AERONET
Stornoway_MO,58.21156,-6.182147,AERONET
Beijing_PKU,39.992,116.3102,AERONET
Mount_Wilson,34.2247,-118.0559,AERONET
SP-EACH,-23.48163,-46.49967,AERONET
Portglenone_MO,54.865,-6.457,AERONET
Lerwick_MO,60.139372,-1.185113,AERONET
UACJ_UNAM_ORS,31.743333,-106.431667,AERONET
Technion_Haifa_IL,32.77587,35.0249,AERONET
Possession_Island,-27.010428,15.194255,AERONET
DRAGON_Henties_1,-22.052222,14.295125,AERONET
DRAGON_Henties_2,-22.115833,14.339791,AERONET
DRAGON_Henties_3,-22.183889,14.377948,AERONET
DRAGON_Henties_4,-22.020278,14.345504,AERONET
DRAGON_Henties_5,-22.091667,14.399573,AERONET
DRAGON_Henties_6,-22.166667,14.430668,AERONET
Paranal_CTA,-24.701105,-70.324794,AERONET
UPC-GEAB-Valledupar,9.5596,-73.3293,AERONET
Crucero,-22.2745,-69.5662,AERONET
Glasgow_MO,55.9068,-4.53122,AERONET
Walvis_Bay_airport,-22.98,14.64,AERONET
Oxford,51.759,-1.256,AERONET
Mesa_Lakes,39.052,-108.0981,AERONET
Bamboo,25.186711,121.535266,AERONET
Nouragues,4.087639,-52.680056,AERONET
Vienna_BOKU,48.237861,16.331611,AERONET
DigitalGlobe_Cal,40.13889,-105.13722,AERONET
Cork_UCC,51.89241,-8.493762,AERONET
Cape_Fuguei_Station,25.297452,121.537859,AERONET
CATUC_Bamenda,5.9491,10.1563,AERONET
Temuco-UFRO_CEFOP,-38.745803,-72.615525,AERONET
LAMTO-STATION,6.223517,-5.026617,AERONET
NEON_NIWO,40.05425,-105.582369,AERONET
NEON_GRSM,35.688961,-83.50195,AERONET
NEON_TOOL,68.661089,-149.370469,AERONET
NEON_CLBJ,33.40123,-97.57,AERONET
NEON_SRER,31.910681,-110.835489,AERONET
NEON_DEJU,63.881119,-145.751361,AERONET
NEON_BARR,71.28241,-156.61936,AERONET
Mandalay_MTU,21.972896,96.186136,AERONET
Weybourne,52.95,1.121944,AERONET
SDSU_IPLab,44.314828,-96.786075,AERONET
Los_Leones_Auger,-35.495807,-69.449759,AERONET
UNC-Palmira,3.512295,-76.30761,AERONET
Kosetice_Inoe,49.558,15.115,AERONET
Rome_La_Sapienza,41.901695,12.515773,AERONET
Edmonton,53.549,-113.636,AERONET
Amity_Univ_Gurgaon,28.317329,76.916031,AERONET
Brno_Airport,49.15647,16.68333,AERONET
Pafos,34.71111,32.48333,AERONET
NEON_SJER,37.10878,-119.73228,AERONET
NEON_NOGP,46.769719,-100.91535,AERONET
Rexburg_Idaho,43.82011,-111.78301,AERONET
Pilar_Cordoba,-31.667411,-63.882597,AERONET
Tucuman,-26.787153,-65.206697,AERONET
Pioneer_JC,1.384333,103.754528,AERONET
LMOS_Zion_Site,42.467573,-87.810047,AERONET
Hampton_University,37.0204,-76.3365,AERONET
Ny_Alesund_AWI,78.923166,11.92304,AERONET
SDU1,-20.072877,-67.601385,AERONET
SDU2,-19.982874,-67.586208,AERONET
SDU3,-20.10209,-67.510582,AERONET
SDU4,-20.122675,-67.679061,AERONET
SDU5,-20.279479,-66.982737,AERONET
SDU6,-20.153516,-67.57286,AERONET
Banqiao,24.997757,121.442497,AERONET
CBBT,37.036667,-76.0766,AERONET
San_Pietro_Capo,44.650001,11.619999,AERONET
NEON_BONA,65.154033,-147.502583,AERONET
NEON_TEAK,37.005831,-119.006019,AERONET
San_Cristobal_USFQ,-0.8954,-89.60879,AERONET
Huambo,-12.8679,15.7046,AERONET
Sao_Tome,0.37469,6.71099,AERONET
Sakeji_School,-11.232956,24.312,AERONET
Quito_USFQ,-0.196244,-78.435589,AERONET
Spoon_Butte,42.5962,-104.44255,AERONET
PNNL,46.34095,-119.2788,AERONET
Brest_MF,48.444565,-4.411855,AERONET
El_Alto-Altiplano,-16.509972,-68.198583,AERONET
NEON_WREF,45.820488,-121.951912,AERONET
Langtang_BC,28.214431,85.609781,AERONET
Kyanjin_Gompa,28.211258,85.5663,AERONET
ARM_SGP,36.605175,-97.485619,AERONET
DEWA_ResearchCentre,24.766847,55.369125,AERONET
ARIAKE_TOWER,33.103617,130.27195,AERONET
Dibrugarh_Univ,27.45085,94.896889,AERONET
Denver_LaCasa,39.77949,-105.00518,AERONET
Learmonth,-22.2407,114.0967,AERONET
Maldives_Gan,-0.6905,73.15,AERONET
New_Delhi_IMD,28.5885,77.2216,AERONET
Kaohsiung,22.675621,120.292171,AERONET
Warsaw_UW,52.210932,20.982636,AERONET
Thimphu,27.472643,89.639057,AERONET
Bidur,27.8955,85.140096,AERONET
Victoria_JC,1.306944,103.919444,AERONET
Xitun,24.1622,120.6169,AERONET
AAOT,45.3139,12.5083,AERONET
Misamfu,-10.1712,31.2241,AERONET
South_Greenbay,44.59633,-87.9512,AERONET
Lake_Okeechobee,26.9017,-80.7892,AERONET
Kluane_Lake,61.027,-138.41,AERONET
Granite_Island,46.7208,-87.412,AERONET
ASI_Malindi,-2.996,40.1945,AERONET
Migal,33.236394,35.578278,AERONET
Welgegund,-26.569444,26.939167,AERONET
BMKG_GAW_PALU,-1.6503,120.1829,AERONET
Hart_Miller_Island,39.2419,-76.3628,AERONET
Antikythera_NOA,35.86099,23.30982,AERONET
Majadas,39.955031,-5.775914,AERONET
Naalehu_Elementary,19.060874,-155.578983,AERONET
HBOI,27.5343,-80.3569,AERONET
PSDA_Chile,-24.090306,-69.929028,AERONET
ETNA_VENA,37.7905,15.1386,AERONET
Yale_Coastal,41.2583,-72.7312,AERONET
Punta_Arenas_UMAG,-53.1354,-70.8845,AERONET
Irbe_Lighthouse,57.75092,21.72297,AERONET
Reykjavik,64.1278,-21.9037,AERONET
KEMPTEN_UAS,47.715833,10.314133,AERONET
Pinehurst_Idaho,47.536739,-116.236917,AERONET
Kwajalein_Atoll,8.84749,167.742808,AERONET
Loch_Leven,56.18803,-3.35165,AERONET
SDU2018,-20.0318,-67.8695,AERONET
Tres_Olivos,40.499111,-3.688514,AERONET
Barajas,40.465277,-3.580576,AERONET
Suertes,40.371644,-3.605795,AERONET
Cuatro_Vientos,40.370096,-3.779692,AERONET
ARM_Cordoba,-32.12641,-64.72837,AERONET
NEON_YELL,44.95348,-110.53914,AERONET
Payerne,46.812408,6.942019,AERONET
Lopburi,15.266667,101.187361,AERONET
Braccagni,42.827746,11.079531,AERONET
VirginiaTech,37.230775,-80.424681,AERONET
Montevideo_FING,-34.918167,-56.166767,AERONET
Alkali_Lake,37.8588,-117.382,AERONET
Railroad_NSPO,38.504722,-115.692,AERONET
Grizzly_Bay,38.108167,-122.056208,AERONET
Merida_MEDA,20.9839,-89.6452,AERONET
NEON_PUUM,19.553144,-155.317242,AERONET
Campus_USACH,-33.4499,-70.681567,AERONET
Qena_SVU,26.199924,32.747029,AERONET
Bangkok,13.7491,100.5177,AERONET
Okinawa_Hedo,26.867,128.249,AERONET
Sra_Kaeo,13.6889,102.5043,AERONET
Casablanca_Platform,40.717,1.358,AERONET
Fang,19.913397,99.206425,AERONET
MAXAR_FUTON,40.03556,-104.885,AERONET
TASA_Taiwan,24.783889,121.001122,AERONET
Kashi,39.5043,75.9304,AERONET
Lumbini_North,27.503722,83.282133,AERONET
UEM_Maputo,-25.949667,32.598833,AERONET
Matorova_FMI,67.99997,24.240012,AERONET
Niassa,-12.15512,37.56656,AERONET
Cliff_Creek_1,45.108708,-114.843318,AERONET
Cliff_Creek_2,45.115091,-114.843248,AERONET
Cliff_Creek_3,45.115417,-114.836824,AERONET
Cliff_Creek_4,45.123432,-114.83938,AERONET
Cliff_Creek_5,45.129928,-114.846827,AERONET
Cliff_Creek_6,45.144171,-114.845318,AERONET
Yanqihu,40.4083,116.6744,AERONET
Railroad_Valley2,38.497,-115.691,AERONET
Dakar_Belair,14.7017,-17.4256,AERONET
Caillouel_COBIACC,49.619914,3.12681,AERONET
Missoula_Health_Dpt,46.875753,-113.995597,AERONET
Missoula_Pt_Six,47.041333,-113.986306,AERONET
Missoula_Waterworks,46.880881,-113.987222,AERONET
Missoula_Midslope,46.999861,-114.025889,AERONET
Hainich_UGOE,51.0792,10.4522,AERONET
Meridian_DEQ,43.600697,-116.347989,AERONET
Cascade_Airport,44.495286,-116.016825,AERONET
Tumbarumba,-35.7083,147.9499,AERONET
McCall_Dragon_1,44.764,-116.1962,AERONET
McCall_Dragon_3,45.0385,-116.2894,AERONET
McCall_Dragon_4,45.2767,-115.9146,AERONET
McCall_Dragon_5,45.2674,-115.6834,AERONET
McCall_Dragon_6,45.4056,-116.0255,AERONET
McCall_Dragon_7,45.4105,-116.3295,AERONET
McCall_AB_Standard,44.870242,-116.115561,AERONET
McCall_AB_Polar,44.870242,-116.115561,AERONET
Ibirapuera,-23.589183,-46.650924,AERONET
Kemigawa_Offshore,35.610833,140.02333,AERONET
McCall_Dragon_8,45.268874,-115.845115,AERONET
McCall_Dragon_9,45.272417,-115.849037,AERONET
Section-7_Platform,44.5458,29.4466,AERONET
BMKG_Jakarta,-6.155239,106.841197,AERONET
Kupang,-10.139178,123.667097,AERONET
ARM_Andenes,69.141281,15.684166,AERONET
Salton_Sea,33.16923,-115.85593,AERONET
Roque_Muchachos,28.7639,-17.8939,AERONET
Croisic_UTLN,47.293606,-2.5134,AERONET
Debrzyna_PULS,53.7825,16.592157,AERONET
Pretoria_CSIR-EC,-25.750126,28.278441,AERONET
Bahia_Blanca,-39.148333,-61.721667,AERONET
Escudero_Station,-62.2015,-58.9657,AERONET
Univ_of_Auckland,-36.852621,174.768143,AERONET
Sacramento_CARB,38.56844,-121.49311,AERONET
Maido_OPAR,-21.07985,55.383087,AERONET
Princeton_Univ,40.35028,-74.65219,AERONET
DRAGON_Mt_Happo,36.696944,137.798126,AERONET
DRAGON_Hakuba,36.700556,137.864134,AERONET
DRAGON_Matsumoto,36.251389,137.977832,AERONET
DRAGON_Suwa,36.045556,138.108754,AERONET
DRAGON_Mt_Krigamine,36.098056,138.168297,AERONET
DRAGON_Kofu,35.678889,138.571534,AERONET
DRAGON_Mt_Haruna,36.475556,138.877794,AERONET
DRAGON_Minowa,35.915,137.980741,AERONET
DRAGON_Ina,35.8475,137.96125,AERONET
DRAGON_Iida,35.516667,137.842199,AERONET
EIN_TAMAR,30.945667,35.389232,AERONET
Sofia_IEBAS,42.6539,23.3868,AERONET
Chiang_Dao,19.454722,98.9609,AERONET
Masdar_Institute_2,24.4416,54.6166,AERONET
USDA_ALARC,33.077454,-111.97339,AERONET
Herstmonceux,50.867517,0.334378,AERONET
Gosan_NIMS_SNU,33.3001,126.2058,AERONET
Catalina,32.456511,-110.879547,AERONET
Zugspitze_KIT,47.421,10.986,AERONET
DRAGON_Omachi,36.503056,137.8514,AERONET
DRAGON_Takayama,36.252778,137.3045,AERONET
Tel-Aviv_University,32.1129,34.8062,AERONET
San_Marco_Platform,-2.941667,40.214722,AERONET
Erlin,23.9253,120.4096,AERONET
Metsi,-26.490781,27.132408,AERONET
London-CDN,43.008,-81.27,AERONET
TGF_Tsukuba,36.113889,140.096,AERONET
IIT_Delhi,28.545,77.1926,AERONET
AAU_ET,9.019167,38.747778,AERONET
Girardota_Colombia,6.376324,-75.448979,AERONET
Freiburg_ALU,48.0011,7.8486,AERONET
Dugway_Utah,40.101944,-113.21408,AERONET
Ji_Parana_UNIR_2,-10.9702,-61.9812,AERONET
Chesapeake_Bay,39.12351,-76.3489,AERONET
Lake_Okeechobee_N,27.139117,-80.788803,AERONET
Guadiana-UGR,37.910839,-3.228483,AERONET
Amsterdam_Ruisdael,52.334336,4.866967,AERONET
Chachoengsao,13.5,101.45,AERONET
Apulian_Tavoliere,41.46084,15.5016,AERONET
Capel_Dewi,52.424804,-4.004613,AERONET
YUMA_SL,32.644138,-114.58278,AERONET
Asuncion_Airport,-25.235809,-57.514727,AERONET
GasLab_SJ_CostaRica,9.939444,-84.0425,AERONET
NREL-Golden,39.743725,-105.17799,AERONET
KITcube_Rottenburg,48.489074,8.955358,AERONET
Momuy_MF,43.6243,-0.6092,AERONET
FORTH_RSLab,35.336111,25.132861,AERONET
WFF_X-75_Sci_Obs,37.843908,-75.477517,AERONET
Sacramento_River,38.049531,-121.88755,AERONET
Manchester_UoM,53.467374,-2.232006,AERONET
NPL_Teddington,51.4258,-0.3445,AERONET
Highfield,51.608,0.1745,AERONET
ECCOE-EROS-InstFarm,43.733706,-96.62185,AERONET
ECCOE-Mann-Farm-SD,43.997131,-98.215017,AERONET
ECCOE-SDSU-R-Park,44.321064,-96.76225,AERONET
Soverato_IMAA,38.689444,16.545278,AERONET
Lewis-Clark_ID_USA,46.413153,-117.02717,AERONET
Mindelo_OSCM,16.877772,-24.995374,AERONET
Marseille_ATMO,43.3059,5.395,AERONET
Montreal,45.522558,-73.620786,AERONET
OU_NWC,35.181861,-97.440306,AERONET
Berlin_FRIE,52.5075,13.398,AERONET
MammothCUES_CA_USA,37.643,-119.029,AERONET
ECCOE-Edwards-AFB,34.947386,-117.879672,AERONET
UH_Liberty,30.096944,-94.763,AERONET
ARM_Gothic,38.956,-106.988,AERONET
ARM_LaPorte,29.669,-95.059,AERONET
Tahiti_MF,-17.555379,-149.614539,AERONET
UH_Aldine,29.901111,-95.326125,AERONET
UH_Sugarland,29.574167,-95.652,AERONET
La_Parva,-33.3304,-70.2972,AERONET
ECCOE-Moneta-WY,43.150422,-107.695394,AERONET
Alta_Floresta_IF,-9.908354,-56.064393,AERONET
ATHENS_NTUA,37.977036,23.783088,AERONET
Union_Glacier,-79.7679,-82.9131,AERONET
Helmos_NTUA,38.00558,22.19825,AERONET
La_Palma,28.486667,-17.848611,AERONET
Carmel_Valley,36.4021,-121.6464,AERONET
Roosevelt_HS,38.994375,-76.868269,AERONET
ECCOE-Guymon-OK,36.714822,-101.4787,AERONET
ECCOE-CoconinoNF-AZ,35.447761,-111.566153,AERONET
ATTO-Campina,-2.181583,-59.021861,AERONET
AU_NSW_Merriwa,-32.12667,150.4583,AERONET
AU_NSW_Lidcombe,-33.93139,151.0467,AERONET
Seguin_Texas_USA,29.570896,-97.982997,AERONET
Incheon,37.568819,126.637197,AERONET
Ilo_UNAM,-17.601983,-71.338867,AERONET
Agen_Palissy,44.200933,0.623925,AERONET
Troodos_CAO,34.943056,32.865475,AERONET
Banana_River,28.36699,-80.63328,AERONET
Ioannina_UoI,39.616,20.837,AERONET
Kosetice_NAOK,49.5718,15.0813,AERONET
Yerba_Loca,-33.33015,-70.2965,AERONET
Greifswald_Univ,54.09126,13.40391,AERONET
Chajnantor,-22.959314,-67.786118,AERONET
Cerro_Tres_Puntas,-33.318,-70.233,AERONET
PLOCAN_Tower,28.041118,-15.385113,AERONET
Aspendale_Mel_AU,-38.02464,145.1015,AERONET
ICIMOD,27.646647,85.323269,AERONET
ALERIA_MF,42.129,9.496,AERONET
UCR_Santa_Cruz,10.283649,-85.595211,AERONET
Rambouillet_ACROSS,48.686604,1.704426,AERONET
Vilnius,54.7236,25.3257,AERONET
KITcube_WadiRum,29.738889,35.385833,AERONET
Mohawk_Mountain,41.8214,-73.29733,AERONET
New_Haven,41.301111,-72.90288,AERONET
East_Brunswick,40.4623,-74.4294,AERONET
Flushing,40.734167,-73.8157,AERONET
University_of_Nizwa,22.9101,57.6741,AERONET
SUNY_Rockland,41.134722,-74.0855,AERONET
Guadiana_UGR_4,37.915013,-3.22757,AERONET
REIMS_GSMA,49.243248,4.067048,AERONET
San_Nicolas_Island,33.2799,-119.5223,AERONET
AAU_Jackros_ET,9.011667,38.820833,AERONET
Pahia_TROPOS,-46.31,167.71,AERONET
Oslo_MET_Norway,59.942,10.721,AERONET
MAGIC_ORM_La_Palma,28.761767,-17.89067,AERONET
Chi_Kraeng_Station,13.225008,104.36535,AERONET
ARM_La_Jolla,32.866906,-117.256723,AERONET
Innsbruck_MUI,47.264167,11.385694,AERONET
Juan_Carlos_I_base,-62.663056,-60.389444,AERONET
Eriswil_TROPOS,47.070514,7.872918,AERONET
IMPACTS_UConn,41.818175,-72.258149,AERONET
Neumayer3_TROPOS,-70.665278,-8.28367,AERONET
Hel_IGF,54.603,18.813,AERONET
Riyadh_Airport_SDSC,24.925833,46.72171,AERONET
Rafha_Airport_SDSC,29.62195,43.49336,AERONET
RdP-EsNM,-34.818,-57.8959,AERONET
CASP_Watkins_CO_USA,39.786017,-104.531911,AERONET
Aosta,45.7422,7.357,AERONET
Paranal_basecamp,-24.640915,-70.387045,AERONET
Chiwaukee_Prairie,42.5047,-87.8093,AERONET
Howard_Univ-IRB,38.919424,-77.021542,AERONET
Pinnacles_PIAU,-30.583611,115.155,AERONET
WC_Whittier_CA,33.9678,-118.0299,AERONET
NPU_Chicago_IL,41.9748,-87.712,AERONET
Turlock_CA_USA,37.52387,-120.85586,AERONET
VCURRC_CharlesCity,37.326192,-77.205661,AERONET
Kuching_Swinburne,1.5317,110.3567,AERONET
Selegua_BSRN,15.783889,-91.99021,AERONET
Canchones,-20.4441,-69.5326,AERONET
Lubbock_TTU_TX_USA,33.61054,-102.05054,AERONET
KITcube_VS,48.05614,8.48647,AERONET
Alert_ARCSIX,82.49,-62.42,AERONET
Ragged_Point_2,13.165,-59.432,AERONET
GSFC_POLAR,38.9925,-76.839833,AERONET
ESP-VLC-ELPALMAR,39.29791,-0.326363,AERONET
TEST_Cypress_TX,29.954444,-95.730018,AERONET
Aguamarga,36.94,-2.033208,AERONET
Bruz_BZH,47.989592,-1.731081,AERONET
ARIAKE_TOWER_2,33.114,130.29,AERONET
South_DeKalb_GA,33.688,-84.290493,AERONET
Frying_Pan_Tower,33.4853,-77.5901,AERONET
Duke_Forest_NC_US,35.970796,-79.093246,AERONET
Lecce_ECO,40.335857,18.124499,AERONET
AAQ2_SK_Suwon,37.2611,126.9928,AERONET
AAQ3_SK_CBNU,36.6263,127.4566,AERONET
AAQ4_SK_Jincheon,36.8548,127.4413,AERONET
AAQ5_SK_Ansung,36.988539,127.275684,AERONET
Wroclaw_UWR,51.105726,17.08927,AERONET
AAQ6_PH_Meycauayan,14.7644,120.9887,AERONET
AAQ7_PH_Bilibid,14.3835,121.0337,AERONET
Corpus_Christi_TX,27.715174,-97.328741,AERONET
SEU_Austin_TX,30.228416,-97.754365,AERONET
AAQ8_MY_Klang,3.014889,101.413111,AERONET
AAQ9_MY_Cheras,3.106236,101.717917,AERONET
HengChun-MetSta,22.003611,120.74612,AERONET
AAQ13_Kx_Wanluan,22.579167,120.57455,AERONET
AAQ12_Kx_Xiaoliuqiu,22.336389,120.36847,AERONET
AAQ10_MY_Banting,2.81664,101.62288,AERONET
Rottnest_WA_Aus,-32.023889,115.454361,AERONET
IITM_ARTCI_Bhopal,23.572259,77.244293,AERONET
Santarem_SONDA,-2.683611,-54.535,AERONET
Greyhills_Tuba_AZ,36.12704,-111.22123,AERONET
PCDS_HAZELGREEN_AL,34.89893,-86.556889,AERONET
ARM_KCG,-40.6804,144.6896,AERONET
Fengshan,22.62964,120.34594,AERONET
NUST_Islamabad,33.647866,72.989307,AERONET
SRMIST_CHENNAI,12.821113,80.046432,AERONET
Xavier_Univ_LA,29.9643,-90.1074,AERONET
Andenes_Harbour,69.316669,16.130556,AERONET
Mt_Cimone,44.115827,10.420891,AERONET
Perth-CSIRO_AU,-31.99361,115.885254,AERONET
Cabauw_profiling_NL,51.968,4.929,AERONET
RotterdamSlufter_NL,51.933495,3.999843,AERONET
NRL_CEOBS_MBAYCAUSA,36.905678,-121.840389,AERONET
Onsala_Chalmers,57.391938,11.918862,AERONET
Zhengzhou,34.799167,113.803056,AERONET
Garmisch_KIT,47.476388,11.063055,AERONET
CNES_ASA,43.7,-0.266667,AERONET
Cambridge_Bay,69.1213,-105.03941,AERONET
Stony_Plain,53.5293,-114.002,AERONET
Tasmania_Region,-41.503,147.067,Open AQ
Tasmania_Region_2,-41.53,146.835,Open AQ
Tasmania_Region_3,-41.238,146.42,Open AQ
Tasmania_Region_4,-41.108,145.883,Open AQ
Tasmania_Region_5,-41.595,147.122,Open AQ
Tasmania_Region_6,-41.159,146.146,Open AQ
Tasmania_Region_7,-40.85,145.133,Open AQ
Tasmania_Region_8,-40.992,145.718,Open AQ
Tasmania_Region_9,-41.43,146.338,Open AQ
Tasmania_Region_10,-41.523,146.658,Open AQ
Tasmania_Region_11,-41.578,147.172,Open AQ
Tasmania_Region_12,-41.185,146.345,Open AQ
Tasmania_Region_14,-41.162,147.515,Open AQ
Tasmania_Region_15,-42.081,145.553,Open AQ
Tasmania_Region_16,-41.638,147.967,Open AQ
Tasmania_Region_17,-41.25,147.217,Open AQ
Tasmania_Region_18,-41.303,146.951,Open AQ
Tasmania_Region_19,-41.32,148.25,Open AQ
Tasmania_Region_20,-41.928,147.491,Open AQ
Tasmania_Region_21,-41.111,146.836,Open AQ
Tasmania_Region_22,-41.419,147.124,Open AQ
Tasmania_Region_23,-42.684,146.936,Open AQ
Tasmania_Region_24,-43.159,147.072,Open AQ
Tasmania_Region_25,-42.819,147.817,Open AQ
Tasmania_Region_26,-43.01,146.94,Open AQ
Tasmania_Region_27,-42.3,147.372,Open AQ
Tasmania_Region_28,-42.776,147.054,Open AQ
Tasmania_Region_29,-43.17,146.925,Open AQ
Tasmania_Region_30,-42.861,147.404,Open AQ
Tasmania_Region_31,-43.03,147.05,Open AQ
Tasmania_Region_32,-42.509,147.913,Open AQ
Tasmania_Region_33,-42.842,147.271,Open AQ
Tasmania_Region_34,-42.855,147.315,Open AQ
Melbourne,-37.8220978,144.8471,Open AQ
Trondheim,63.419239,10.395945,Open AQ
Melbourne_2,-37.9135475,144.998,Open AQ
Melbourne_3,-37.8287277,145.1324,Open AQ
PL_1,49.93785,18.975594,Open AQ
Borsukowizna,53.215492,23.642153,Open AQ
Mildura,-34.19561,142.1616,Open AQ
Stockholm,58.590397,16.178606,Open AQ
Stockholm_2,57.637377,18.301129,Open AQ
Stockholm_3,59.3667459,17.9688665,Open AQ
PL_2,52.602534,19.6451,Open AQ
Uppsala,59.853185,17.653329,Open AQ
TW_1,22.608711,120.312017,Open AQ
Stockholm_4,58.40878,15.631343,Open AQ
Bendigo,-36.7784,144.300064,Open AQ
NO_1,59.91822,10.58393,Open AQ
IS_1,64.1301,-21.87465,Open AQ
Melbourne_4,-37.98576,145.1987,Open AQ
Geelong,-38.17356,144.3703,Open AQ
Melbourne_5,-37.722477,145.0576,Open AQ
Bergen,60.37408,5.34042,Open AQ
Spotswood,-37.82743,144.8801,Open AQ
PL_3,50.716628,23.290247,Open AQ
Lillehammer,61.11295,10.46487,Open AQ
Drammen,59.73327,10.21167,Open AQ
Drammen_2,59.749526,10.165301,Open AQ
Oslo,59.9325,10.66987,Open AQ
Stockholm_5,59.338921,18.035773,Open AQ
PL_4,51.589208,19.131433,Open AQ
Rangiora,-43.307439,172.594745,Open AQ
IS_2,64.138861,-21.873411,Open AQ
PL_5,50.349608,18.236575,Open AQ
Morwell_2,-38.229393,146.424454,Open AQ
PL_6,50.913433,15.765608,Open AQ
PL_7,54.167847,19.410942,Open AQ
Beograd,44.47580847,20.30891418,Open AQ
Moe,-38.1864662,146.258331,Open AQ
Oslo_2,59.91126,10.70398,Open AQ
Beograd_2,44.849212,20.377266,Open AQ
TW_2,25.072611,121.493806,Open AQ
Beograd_3,44.835246,20.403299,Open AQ
Beograd_4,44.796427,20.486154,Open AQ
PL_8,52.420319,16.877289,Open AQ
NO_2,60.79089,10.6967,Open AQ
PL_9,52.053811,20.429892,Open AQ
Beograd_5,44.766649,20.61098,Open AQ
RS_1,44.788646,20.444507,Open AQ
PL_10,50.018253,20.992578,Open AQ
Beograd_6,44.7924,20.272734,Open AQ
Beograd_7,44.776953,20.535435,Open AQ
Beograd_8,44.519807,20.578488,Open AQ
Olsztyn,53.789233,20.486075,Open AQ
Beograd_9,44.884112,20.527552,Open AQ
Beograd_10,44.805925,20.398811,Open AQ
PL_11,50.012083,22.674772,Open AQ
RS_2,44.629741,20.011135,Open AQ
Warszawa,52.188474,21.176233,Open AQ
Obrenovac,44.66999958,20.19733161,Open AQ
Beograd_Mladenovac,44.444047,20.696033,Open AQ
RS_3,44.728534,20.580721,Open AQ
Lazarevac_,44.384113,20.265436,Open AQ
Melton,-37.7064552,144.5669,Open AQ
Beograd_11,44.794262,20.463173,Open AQ
Beograd_12,44.777237,20.457029,Open AQ
PL_12,50.057678,19.926189,Open AQ
Melbourne_6,-37.8073959,144.97,Open AQ
Beograd_13,44.81681468,20.4699406,Open AQ
Beograd_14,44.873952,20.446585,Open AQ
Beograd_15,44.815028,20.3779,Open AQ
Beograd_16,44.58871,20.429121,Open AQ
Beograd_Banovo_brdo,44.777284,20.409701,Open AQ
Beograd_17,44.79134339,20.42560078,Open AQ
Beograd_18,44.790166,20.4169,Open AQ
HU_1,47.56325,18.4087,Open AQ
PL_13,53.136681,17.591539,Open AQ
Point_Cook,-37.9263153,144.7567,Open AQ
HU_2,47.498948,19.051903,Open AQ
HU_3,46.965924,18.935198,Open AQ
Traralgon,-38.1942825,146.531464,Open AQ
Oslo_3,59.914051,10.735978,Open AQ
Budapest_Gergely_utca,47.466982,19.157219,Open AQ
HU_4,46.90234,19.68875,Open AQ
HU_5,47.20167,18.143025,Open AQ
HU_6,47.43,19.18111,Open AQ
HU_7,47.089574,17.905054,Open AQ
HU_8,47.544291,19.144177,Open AQ
Kazincbarcika,48.247033,20.61445,Open AQ
TW_3,24.151958,120.641092,Open AQ
Warszawa_2,52.207742,20.906073,Open AQ
Warszawa_3,52.219298,21.004724,Open AQ
Oslo_4,59.89864,10.8149,Open AQ
Szolnok,47.17712,20.19688,Open AQ
Bergen_2,60.462665,5.332447,Open AQ
HU_9,46.668115,21.06731,Open AQ
Oslo_5,59.9169444,10.766,Open AQ
HU_10,48.47295,21.212,Open AQ
HU_11,47.89966,19.946894,Open AQ
HU_12,48.09042,20.81201,Open AQ
EMI_mobil_2,48.099356,20.727049,Open AQ
HU_13,47.195944,18.400246,Open AQ
Bangkok,13.691511,100.61457,Open AQ
Ajka,47.103172,17.561381,Open AQ
HU_14,47.522693,19.069867,Open AQ
HU_15,46.040885,18.220884,Open AQ
HU_16,47.40605,19.0099,Open AQ
K_Puszta,46.965244,19.54528,Open AQ
Phitsanulok,16.820833,100.258056,Open AQ
CY_1,34.9923,33.779,Open AQ
CY_2,34.9166667,33.6275,Open AQ
Bangkok_2,13.803587,100.607535,Open AQ
Bangkok_3,13.667987,100.635313,Open AQ
CY_3,35.15192247,33.34791996,Open AQ
CY_4,34.7752778,32.4219444,Open AQ
CY_5,34.7294444,33.3375,Open AQ
CY_6,34.77153,33.29623,Open AQ
CY_7,35.04569276,33.97773488,Open AQ
CY_8,34.6861111,33.0355556,Open AQ
PL_14,52.090436,16.636381,Open AQ
PL_15,51.930734,22.372502,Open AQ
PL_16,52.703591,21.072603,Open AQ
Bangkok_4,13.72205,100.784069,Open AQ
Nakhon_Phanom,17.412345,104.7786123,Open AQ
Oslo_6,59.9156,10.82517,Open AQ
Konstancin_Jeziorna,52.082277,21.124598,Open AQ
Bangkok_5,13.77682,100.579543,Open AQ
PL_17,53.40758,18.428751,Open AQ
PL_18,50.778479,21.081224,Open AQ
PL_19,50.060381,21.980511,Open AQ
PL_20,50.024856,22.047937,Open AQ
Bangkok_6,13.7716446,100.4681128,Open AQ
Nonthaburi,13.852778,100.529444,Open AQ
Bangkok_7,13.7631141,100.7302101,Open AQ
Bangkok_8,13.756281,100.514267,Open AQ
Bangkok_9,13.677757,100.483861,Open AQ
Bangkok_10,13.7855673,100.6733359,Open AQ
Bangkok_11,13.778981,100.622294,Open AQ
Bangkok_12,13.69304,100.50244,Open AQ
Bangkok_13,13.8778763,100.6207085,Open AQ
Bangkok_14,13.719705,100.508782,Open AQ
Bangkok_15,13.793965,100.504956,Open AQ
Bangkok_16,13.768892,100.685743,Open AQ
Bangkok_17,13.809596,100.537883,Open AQ
Bangkok_18,13.813578,100.73208,Open AQ
Swan_Hill,-35.34331,143.5341,Open AQ
Bangkok_19,13.70515,100.48465,Open AQ
Bangkok_20,13.887395,100.579247,Open AQ
Bangkok_21,13.696314,100.409049,Open AQ
Bangkok_22,13.651004,100.496673,Open AQ
Oslo_7,59.9193,10.69651,Open AQ
PL_21,53.85255,22.984686,Open AQ
Yinnar,-38.32676,146.3261,Open AQ
Miskolc,48.106944,20.790006,Open AQ
TW_4,23.711853,120.544994,Open AQ
IS_3,64.04416,-21.98535,Open AQ
Curacao,12.1696,-68.99,Open AQ
PL_22,49.546539,21.851006,Open AQ
TW_5,22.883583,120.530542,Open AQ
Warszawa_4,52.160772,21.033819,Open AQ
TW_6,24.982528,121.451861,Open AQ
TW_7,23.971306,121.599769,Open AQ
Szczecin,53.380975,14.663347,Open AQ
TW_8,23.913,120.685306,Open AQ
TW_9,25.017,121.516306,Open AQ
TW_10,24.747917,121.746394,Open AQ
TW_11,22.757506,120.305689,Open AQ
TW_12,23.925175,120.409653,Open AQ
Stockholm_7,59.31713214,18.04878744,Open AQ
PL_23,50.433493,16.65366,Open AQ
TW_13,24.225628,120.568794,Open AQ
Brumunddal,60.88593,10.93785,Open AQ
PL_24,51.75805,19.529786,Open AQ
TW_14,23.045083,121.161933,Open AQ
TW_15,25.1645,121.449239,Open AQ
TW_16,23.569031,119.566158,Open AQ
TW_17,25.129167,121.760056,Open AQ
TW_18,24.952786,121.203986,Open AQ
TW_19,22.673081,120.488033,Open AQ
TW_20,23.756389,120.677306,Open AQ
TW_21,22.755358,121.15045,Open AQ
TW_22,25.046503,121.507972,Open AQ
Lima_2,-12.008889,-77.084472,Open AQ
PL_25,54.120694,17.975861,Open AQ
PL_26,50.429014,21.277367,Open AQ
IS_4,64.10495,-21.889,Open AQ
PL_27,54.115897,22.938464,Open AQ
unknown,67.275501,14.419057,Open AQ
Bydgoszcz,53.134083,17.995708,Open AQ
Katowice,50.246795,19.019469,Open AQ
Nisko,50.529892,22.112467,Open AQ
PL_28,52.191728,20.837489,Open AQ
HU_17,46.080278,18.211122,Open AQ
Lima_3,-12.070544,-77.043214,Open AQ
Lima_4,-12.043022,-76.971444,Open AQ
KR,35.2341412,128.6646236,Open AQ
KR_2,38.1063175,127.7080039,Open AQ
KR_3,38.013429,127.034161,Open AQ
KR_4,35.20958,128.9713671,Open AQ
KR_5,36.914275,127.059597,Open AQ
KR_6,37.617315,127.07512,Open AQ
KR_7,37.905689,127.72601,Open AQ
KR_8,35.536392,129.35595,Open AQ
KR_9,36.78279,127.120668,Open AQ
KR_10,37.938413,124.645669,Open AQ
KR_11,34.937342,127.693427,Open AQ
KR_12,35.55809,129.28116,Open AQ
KR_13,35.218056,126.8925,Open AQ
KR_14,37.5175623,127.0472893,Open AQ
KR_15,37.545089,127.136806,Open AQ
KR_16,37.433169,127.164372,Open AQ
KR_17,37.373823,126.73289,Open AQ
KR_18,37.496332,126.643072,Open AQ
KR_19,36.905231,127.964141,Open AQ
Stawell,-37.05928,142.7799,Open AQ
TW_23,23.46477865,120.4412515,Open AQ
TW_24,23.46538,120.2478,Open AQ
TW_25,22.260899,120.651472,Open AQ
TW_26,23.85493056,120.2696417,Open AQ
TW_27,23.96117,120.56373,Open AQ
TW_28,24.94902778,121.3835278,Open AQ
TW_29,25.07798949,121.3654898,Open AQ
TW_30,25.06624,121.64081,Open AQ
TW_31,24.8056356,120.9723675,Open AQ
TW_32,24.90009696,121.0388689,Open AQ
TW_33,24.74091408,121.0889549,Open AQ
TW_34,23.11337642,120.2974053,Open AQ
TW_35,23.048197,120.2175,Open AQ
TW_36,22.98928311,120.219479,Open AQ
TW_37,23.17904722,120.2458306,Open AQ
TW_38,24.38248443,120.7595675,Open AQ
TW_39,24.56499183,120.8201147,Open AQ
TW_40,24.69690679,120.8986929,Open AQ
TW_41,23.702175,120.1993333,Open AQ
TW_42,22.63390278,120.2867611,Open AQ
TW_43,22.6044507,120.3083336,Open AQ
TW_44,22.87985556,120.24535,Open AQ
TW_45,22.628126,120.357422,Open AQ
KR_20,36.474172,127.252529,Open AQ
KR_21,36.982086,127.919206,Open AQ
KR_22,37.8569773,127.7500616,Open AQ
KR_23,35.1055484,128.972983,Open AQ
KR_24,36.006021,129.41491,Open AQ
KR_25,36.923449,127.75545,Open AQ
KR_26,36.372411,127.373938,Open AQ
KR_27,35.761674,126.698103,Open AQ
KR_28,36.390845,126.569444,Open AQ
KR_29,37.484357,127.598367,Open AQ
KR_30,36.059713,127.08331,Open AQ
KR_31,38.0752566,128.6181141,Open AQ
KR_32,35.0619768,126.5225907,Open AQ
KR_33,36.199272,127.086981,Open AQ
KR_34,37.3221,126.8305,Open AQ
KR_35,37.4051,126.9178,Open AQ
KR_36,35.310414,128.987347,Open AQ
KR_37,35.0866322,128.8639,Open AQ
KR_38,36.780177,126.455459,Open AQ
KR_39,36.7738,127.053851,Open AQ
KR_40,36.8075573,127.789237,Open AQ
KR_41,35.3077015,128.7311228,Open AQ
KR_42,37.460709,126.631266,Open AQ
KR_43,37.384904,126.931247,Open AQ
KR_44,36.3018429,127.4602048,Open AQ
KR_45,35.643167,127.9105,Open AQ
KR_46,35.2834576,127.2896401,Open AQ
KR_47,36.275495,126.911297,Open AQ
KR_48,37.572025,127.005028,Open AQ
KR_49,37.566459,126.595122,Open AQ
KR_50,38.123833,127.25235,Open AQ
KR_51,36.839225,127.137578,Open AQ
KR_52,36.736316,126.132168,Open AQ
KR_53,36.994135,127.604512,Open AQ
KR_54,36.634423,127.447045,Open AQ
KR_55,36.730926,127.804682,Open AQ
KR_56,35.105555,128.925833,Open AQ
KR_57,36.526284,127.030853,Open AQ
KR_58,37.580167,127.044856,Open AQ
KR_59,35.412344,127.87597,Open AQ
KR_60,38.224433,127.958583,Open AQ
KR_61,36.304667,127.366717,Open AQ
KR_62,35.9972932,129.4057291,Open AQ
KR_63,37.539109,127.214608,Open AQ
KR_64,35.6473136,127.5211775,Open AQ
KR_65,35.184734,129.078112,Open AQ
KR_66,37.4274,126.7461,Open AQ
KR_67,35.243402,128.641756,Open AQ
KR_68,36.9973684,129.4027221,Open AQ
KR_69,35.157742,126.810097,Open AQ
KR_70,37.6356,127.2162,Open AQ
KR_71,37.516083,127.019694,Open AQ
KR_72,38.129569,126.973711,Open AQ
KR_73,35.439481,127.529153,Open AQ
KR_74,37.5203,126.7737,Open AQ
KR_75,37.0898105,126.8152695,Open AQ
KR_76,33.51733013,126.5704561,Open AQ
KR_77,37.9613,127.3171,Open AQ
KR_78,37.3442,126.969,Open AQ
KR_79,37.40508,126.63227,Open AQ
KR_80,36.889977,126.645799,Open AQ
KR_81,35.5211721,127.7244433,Open AQ
KR_82,34.6062119,127.2805391,Open AQ
KR_83,35.127969,129.115711,Open AQ
KR_84,37.3125964,127.8171686,Open AQ
KR_85,34.980817,127.583116,Open AQ
KR_86,37.3715,127.5845,Open AQ
KR_87,37.298663,127.628936,Open AQ
KR_88,35.673703,127.270625,Open AQ
KR_89,35.837879,128.488731,Open AQ
KR_90,37.4425401,129.168344,Open AQ
KR_91,36.383964,128.440179,Open AQ
KR_92,34.565366,126.599224,Open AQ
KR_93,35.21815,128.57425,Open AQ
KR_94,37.543224,126.737849,Open AQ
KR_95,34.97454361,128.3243698,Open AQ
KR_96,37.657415,127.067876,Open AQ
KR_97,37.443333,126.602777,Open AQ
KR_98,35.49325,129.305696,Open AQ
KR_99,35.867398,127.117517,Open AQ
KR_100,35.797189,127.434893,Open AQ
KR_101,37.304889,126.833521,Open AQ
KR_102,34.8419256,127.3477777,Open AQ
KR_103,35.912903,128.813758,Open AQ
KR_104,37.382084,126.654663,Open AQ
KR_105,34.9903577,126.4762299,Open AQ
KR_106,37.5941,126.6986,Open AQ
KR_107,37.3528063,127.9475408,Open AQ
KR_108,35.973333,126.651417,Open AQ
KR_109,37.4339,127.1293,Open AQ
KR_110,37.526339,126.896256,Open AQ
KR_111,35.864922,128.457164,Open AQ
KR_112,36.814171,127.152144,Open AQ
KR_113,35.911047,128.599759,Open AQ
KR_114,35.72812,127.587812,Open AQ
KR_115,34.88053905,128.6211295,Open AQ
KR_116,36.68121,127.19634,Open AQ
KR_117,37.0334,128.2957,Open AQ
KR_118,37.4112,127.2579,Open AQ
KR_119,35.127142,129.046701,Open AQ
KR_120,35.963042,129.376848,Open AQ
KR_121,37.537745,126.63879,Open AQ
KR_122,35.816726,128.528732,Open AQ
KR_123,35.544442,129.331878,Open AQ
KR_124,33.4646731,126.3315087,Open AQ
KR_125,37.494835,126.563919,Open AQ
KR_126,37.576169,127.029642,Open AQ
KR_127,38.290859,127.179801,Open AQ
KR_128,37.8753695,127.7202223,Open AQ
KR_129,36.597702,126.655133,Open AQ
KR_130,35.438094,126.71279,Open AQ
KR_131,37.735582,127.040421,Open AQ
KR_132,37.390588,127.077838,Open AQ
KR_133,36.635997,127.504028,Open AQ
KR_134,37.64793,127.011952,Open AQ
KR_135,37.488242,126.927089,Open AQ
KR_136,34.965927,127.794191,Open AQ
KR_137,35.62088,129.35796,Open AQ
KR_138,36.869739,126.280761,Open AQ
KR_139,35.1743,126.9325,Open AQ
KR_140,35.56964,129.22602,Open AQ
KR_141,35.5509,129.260827,Open AQ
KR_142,37.6251,126.8423,Open AQ
KR_143,37.652924,127.11586,Open AQ
KR_144,35.2178,128.6023,Open AQ
KR_145,35.202364,128.807221,Open AQ
KR_146,36.10605,128.4187,Open AQ
KR_147,33.2277489,126.2473589,Open AQ
KR_148,37.564639,126.975961,Open AQ
KR_149,36.839,126.46087,Open AQ
KR_150,35.114404,129.017251,Open AQ
KR_151,35.859,128.55183,Open AQ
KR_152,36.6313584,127.3294723,Open AQ
KR_153,35.846502,127.062725,Open AQ
KR_154,37.746355,127.047652,Open AQ
KR_155,37.459,128.063,Open AQ
KR_156,37.0485072,129.065288,Open AQ
KR_157,35.2297487,129.09266,Open AQ
KR_158,36.234746,128.57628,Open AQ
KR_159,35.64988,128.70616,Open AQ
KR_160,36.608818,127.501293,Open AQ
KR_161,35.08298,128.9667622,Open AQ
KR_162,37.26894,126.93609,Open AQ
KR_163,34.9363617,127.5485334,Open AQ
KR_164,35.183108,128.560665,Open AQ
KR_165,35.233361,129.007694,Open AQ
KR_166,36.636989,127.461759,Open AQ
KR_167,35.154972,128.689578,Open AQ
KR_168,37.2837,127.441,Open AQ
KR_169,34.863611,128.690278,Open AQ
KR_170,37.480989,126.971547,Open AQ
KR_171,37.320048,126.948907,Open AQ
KR_172,33.2508702,126.489923,Open AQ
KR_173,36.363249,129.389769,Open AQ
KR_174,37.166203,126.708965,Open AQ
KR_175,35.493678,128.754168,Open AQ
KR_176,34.754549,127.70276,Open AQ
KR_177,37.5278,126.7967,Open AQ
KR_178,35.88761,128.58434,Open AQ
KR_179,36.824238,126.25722,Open AQ
KR_180,35.1552633,129.0225679,Open AQ
KR_181,36.1097343,126.9915668,Open AQ
KR_182,37.831217,127.509769,Open AQ
KR_183,33.539831,126.64412,Open AQ
KR_184,35.985621,127.047468,Open AQ
KR_185,36.446944,127.404722,Open AQ
KR_186,37.56865,126.998083,Open AQ
KR_187,35.968522,129.359954,Open AQ
KR_188,37.89361111,128.8227778,Open AQ
KR_189,34.766301,127.657507,Open AQ
KR_190,35.182668,129.118136,Open AQ
KR_191,37.211479,126.824001,Open AQ
KR_192,35.974693,126.58676,Open AQ
KR_193,36.937966,126.43394,Open AQ
KR_194,35.129493,129.086128,Open AQ
KR_195,36.713311,127.420517,Open AQ
KR_197,37.79239,126.987168,Open AQ
KR_198,35.533314,129.301215,Open AQ
KR_199,34.881925,127.578783,Open AQ
KR_200,35.182831,128.976359,Open AQ
KR_201,35.161944,126.844167,Open AQ
KR_202,36.316111,127.437778,Open AQ
KR_203,35.154292,128.979342,Open AQ
KR_204,37.7919,127.0847,Open AQ
KR_205,35.534671,129.307806,Open AQ
KR_206,35.1556258,129.063259,Open AQ
KR_207,37.1626445,128.9867779,Open AQ
KR_208,37.05311,127.046172,Open AQ
KR_209,35.131917,126.8933,Open AQ
KR_210,37.081564,127.060117,Open AQ
KR_211,37.0,128.1675,Open AQ
KR_212,36.784325,127.099992,Open AQ
KR_213,33.500116,126.532371,Open AQ
KR_214,35.5452909,128.4883674,Open AQ
KR_215,37.452386,126.908333,Open AQ
KR_216,35.85833333,128.5897222,Open AQ
KR_217,37.6104714,126.9335038,Open AQ
KR_218,37.335732,127.976971,Open AQ
KR_219,35.97285,126.700733,Open AQ
KR_220,35.152309,129.108101,Open AQ
KR_221,37.906227,126.73108,Open AQ
KR_222,37.1965,127.1194,Open AQ
KR_223,37.666362,126.886708,Open AQ
KR_224,37.532057,127.002371,Open AQ
KR_225,37.649034,126.675064,Open AQ
KR_226,36.172773,127.777839,Open AQ
KR_227,35.43445,129.30651,Open AQ
KR_228,35.9729798,128.9376783,Open AQ
KR_229,35.066944,127.751389,Open AQ
KR_230,34.6743623,126.9065322,Open AQ
KR_231,36.429289,129.056178,Open AQ
KR_232,36.1439851,128.1370361,Open AQ
KR_233,37.6532578,126.6292725,Open AQ
KR_234,37.654278,127.029333,Open AQ
KR_235,36.790498,126.785915,Open AQ
KR_236,37.394327,126.956859,Open AQ
KR_237,37.502685,127.092385,Open AQ
KR_238,36.688131,126.739314,Open AQ
KR_239,37.283798,127.010472,Open AQ
KR_240,37.010228,127.81517,Open AQ
KR_241,37.7481,127.106,Open AQ
KR_242,36.484771,127.729903,Open AQ
KR_243,36.58667,128.18591,Open AQ
KR_244,35.22933,126.86186,Open AQ
KR_245,35.860351,127.654429,Open AQ
KR_246,37.007863,127.279856,Open AQ
KR_247,35.274045,129.090793,Open AQ
KR_248,35.869104,128.711016,Open AQ
KR_249,35.227745,128.901042,Open AQ
KR_250,37.255942,126.483536,Open AQ
KR_251,36.105052,128.384038,Open AQ
KR_252,37.539283,127.040943,Open AQ
KR_253,35.7156428,129.3234158,Open AQ
KR_254,37.51279,126.73643,Open AQ
KR_255,35.980182,129.374795,Open AQ
KR_256,37.5056,126.759,Open AQ
KR_257,36.82066,128.61209,Open AQ
KR_258,37.7151,126.5526,Open AQ
KR_259,37.488209,130.9040474,Open AQ
KR_260,35.83433,128.541083,Open AQ
KR_261,38.247827,127.79066,Open AQ
KR_262,37.1146,127.6297,Open AQ
KR_263,37.455474,126.692888,Open AQ
KR_264,37.6837538,127.8800359,Open AQ
KR_265,38.1092365,127.9894679,Open AQ
KR_266,37.606667,127.027264,Open AQ
KR_267,37.354651,126.709878,Open AQ
KR_268,35.180609,128.121781,Open AQ
KR_269,35.556277,129.320451,Open AQ
KR_270,35.3744761,127.1373331,Open AQ
KR_271,37.917603,127.061291,Open AQ
KR_272,37.6545086,126.7755571,Open AQ
KR_273,37.764444,126.463333,Open AQ
KR_274,35.869596,127.074632,Open AQ
KR_275,35.560301,129.370866,Open AQ
KR_276,36.120551,128.116213,Open AQ
KR_277,36.3692,128.456533,Open AQ
KR_278,35.865276,128.640031,Open AQ
KR_279,35.839594,128.682225,Open AQ
KR_280,35.243889,128.912222,Open AQ
KR_281,35.217333,128.656617,Open AQ
KR_282,35.845498,128.571066,Open AQ
KR_283,36.35266,128.69676,Open AQ
KR_284,34.978355,127.758004,Open AQ
KR_285,36.51212,127.24643,Open AQ
KR_286,34.80593,126.391767,Open AQ
KR_287,35.122677,129.055411,Open AQ
KR_288,37.329538,127.242271,Open AQ
KR_289,37.542036,127.049685,Open AQ
KR_290,35.9668107,129.4086805,Open AQ
KR_291,35.204728,129.1042,Open AQ
KR_292,37.3857,126.8619,Open AQ
KR_293,37.474899,126.898657,Open AQ
KR_294,35.371633,128.676483,Open AQ
KR_295,36.305084,127.570789,Open AQ
KR_296,36.070725,129.380278,Open AQ
KR_297,37.545556,126.675833,Open AQ
KR_298,37.2437,126.5854,Open AQ
KR_299,34.7539,127.7468,Open AQ
KR_300,37.280224,127.11514,Open AQ
KR_301,35.9907908,129.2269476,Open AQ
KR_302,37.433297,129.190496,Open AQ
KR_303,35.438115,129.336917,Open AQ
KR_304,35.941567,127.165783,Open AQ
KR_305,34.75784,126.452808,Open AQ
KR_306,35.0652356,126.9857882,Open AQ
KR_307,35.414667,129.172083,Open AQ
KR_308,36.592906,127.292253,Open AQ
KR_309,37.125508,128.198426,Open AQ
KR_310,36.883421,127.207371,Open AQ
KR_311,37.196921,127.0723,Open AQ
KR_312,36.828034,127.104606,Open AQ
KR_313,34.7555612,126.1260116,Open AQ
KR_314,37.36615,127.22856,Open AQ
KR_315,37.49659,126.487769,Open AQ
KR_316,35.315748,128.253757,Open AQ
KR_317,35.157731,129.143794,Open AQ
KR_318,36.354444,127.383056,Open AQ
KR_319,36.07865,126.96658,Open AQ
KR_320,35.173784,128.986052,Open AQ
KR_321,37.316703,126.82792,Open AQ
KR_322,37.404839,126.697158,Open AQ
KR_323,37.603593,127.026007,Open AQ
KR_324,37.1725568,128.4551652,Open AQ
KR_325,35.1708927,129.1741659,Open AQ
KR_326,36.05249,129.360814,Open AQ
KR_327,36.6132262,127.4686138,Open AQ
KR_328,37.698672,127.204729,Open AQ
KR_329,35.22583036,128.5032583,Open AQ
KR_330,36.813261,127.615808,Open AQ
KR_331,36.6529558,126.6677018,Open AQ
KR_332,36.15287,126.549494,Open AQ
KR_333,37.1710811,127.052049,Open AQ
KR_334,36.455152,126.804931,Open AQ
KR_335,35.874296,128.584136,Open AQ
KR_336,35.311711,126.972914,Open AQ
KR_337,37.4800328,126.7999056,Open AQ
KR_338,37.562821,126.826071,Open AQ
KR_339,36.576821,128.472886,Open AQ
KR_340,35.889757,128.633064,Open AQ
KR_341,35.409278,127.384754,Open AQ
KR_342,34.6446579,126.7711918,Open AQ
KR_343,34.4792914,126.2687164,Open AQ
KR_344,33.409109,126.268778,Open AQ
KR_345,35.1000281,126.8965634,Open AQ
KR_346,35.875737,128.812259,Open AQ
KR_347,37.580842,127.226766,Open AQ
KR_348,37.449722,126.724167,Open AQ
KR_349,37.452158,126.884909,Open AQ
KR_350,35.976403,127.205523,Open AQ
KR_351,36.107179,127.490685,Open AQ
KR_352,37.473818,126.643199,Open AQ
KR_353,37.441164,126.706817,Open AQ
KR_354,35.850801,129.207344,Open AQ
KR_355,36.8550153,127.4413124,Open AQ
KR_356,37.3825762,127.1027442,Open AQ
KR_357,38.389557,128.248144,Open AQ
KR_358,36.82863,128.62621,Open AQ
KR_359,35.195891,128.074596,Open AQ
KR_360,35.8357126,126.7404835,Open AQ
KR_361,36.687115,126.832093,Open AQ
KR_362,35.20413,126.8072,Open AQ
KR_363,37.487644,126.725563,Open AQ
KR_364,35.528793,129.326001,Open AQ
KR_365,36.904796,127.544593,Open AQ
KR_366,35.515703,129.35892,Open AQ
KR_367,37.785132,128.908776,Open AQ
KR_368,37.132356,126.920186,Open AQ
KR_369,35.56723,128.16517,Open AQ
KR_370,37.138467,127.54645,Open AQ
KR_371,37.4903861,126.7236421,Open AQ
KR_372,37.55561,126.905457,Open AQ
KR_373,34.824764,127.731615,Open AQ
Melbourne_7,-37.77512,145.3284,Open AQ
KR_374,37.52922,126.71511,Open AQ
KR_375,37.0746,127.4244,Open AQ
KR_376,37.457778,126.690833,Open AQ
KR_377,36.425168,127.395931,Open AQ
KR_378,37.3612,126.9362,Open AQ
KR_379,36.746709,126.301512,Open AQ
KR_380,37.657822,127.300702,Open AQ
KR_381,37.350901,127.352363,Open AQ
KR_382,35.8357805,129.2869852,Open AQ
KR_383,36.3682,127.3185,Open AQ
KR_384,38.0964,127.0763,Open AQ
KR_385,36.323889,127.418333,Open AQ
KR_386,37.554936,126.937619,Open AQ
KR_387,35.099849,129.030344,Open AQ
KR_388,36.0300245,129.3748446,Open AQ
KR_389,35.832255,128.583743,Open AQ
KR_390,34.947102,127.518575,Open AQ
KR_391,37.567014,127.186023,Open AQ
KR_392,37.423889,126.994512,Open AQ
KR_393,34.93370386,128.0934468,Open AQ
KR_394,37.523286,126.858689,Open AQ
KR_395,35.345556,129.04,Open AQ
NO_3,59.901395,10.588389,Open AQ
KR_396,36.93885,128.32028,Open AQ
KR_397,35.837626,128.697558,Open AQ
KR_398,35.989987,129.397592,Open AQ
KR_399,35.082551,128.091236,Open AQ
KR_400,37.1591,127.0771,Open AQ
KR_401,37.619335,126.716748,Open AQ
KR_402,37.449479,127.155512,Open AQ
KR_403,37.275324,127.113744,Open AQ
KR_404,35.2720132,128.408105,Open AQ
KR_405,37.367722,126.958989,Open AQ
KR_406,37.602041,126.661444,Open AQ
KR_407,35.80491,126.891416,Open AQ
KR_408,36.125022,127.096762,Open AQ
KR_409,37.2345,127.2014,Open AQ
KR_410,37.382662,127.119103,Open AQ
KR_411,36.944347,126.783615,Open AQ
KR_412,37.723148,126.756434,Open AQ
KR_413,36.550344,127.550333,Open AQ
KR_414,35.01138889,127.5811111,Open AQ
KR_415,35.7268791,128.2823425,Open AQ
KR_416,37.544656,126.835094,Open AQ
KR_417,33.246244,126.56506,Open AQ
KR_418,34.857173,128.432385,Open AQ
KR_419,35.833725,127.122751,Open AQ
KR_420,36.3364108,127.3349525,Open AQ
KR_421,36.537527,129.407086,Open AQ
KR_422,36.66707,129.11228,Open AQ
KR_423,37.520222,126.904967,Open AQ
KR_424,37.4431,126.7884,Open AQ
KR_425,37.584953,127.094283,Open AQ
KR_426,36.344444,127.437222,Open AQ
KR_427,37.327927,127.095215,Open AQ
KR_428,36.976453,126.716298,Open AQ
KR_429,36.3086,127.06721,Open AQ
KR_430,37.174954,129.342184,Open AQ
KR_431,36.782917,127.0145,Open AQ
KR_432,37.1410264,127.1960051,Open AQ
KR_433,37.145137,128.220664,Open AQ
KR_434,33.2843415,126.715115,Open AQ
KR_435,37.3607189,128.3889413,Open AQ
KR_436,37.544639,127.095706,Open AQ
KR_437,35.996198,129.352103,Open AQ
