sitename,Country or Area Name,Full Address,Latitude,Longitude,Air Quality Monitor,IDXi,IDXj,SRadius,MERRALat,MERRALon,agencyname,stationid,locationId,country,sensorType,continent,sensorId
Tasmania_Region,Australia,Hadspen,-41.503,147.067,Y,195,1048,0,-41.503,147.067,,100001,5484,AU,reference grade,unknown,14462
Tasmania_Region_2,Australia,Westbury,-41.53,146.835,Y,195,1047,0,-41.53,146.835,,100002,5483,AU,reference grade,unknown,14461
Tasmania_Region_3,Australia,Latrobe,-41.238,146.42,Y,196,1046,0,-41.238,146.42,,100003,233316,AU,reference grade,unknown,1342446
Tasmania_Region_4,Australia,Emu River,-41.108,145.883,Y,197,1044,0,-41.108,145.883,,100004,5482,AU,reference grade,unknown,5079369
Tasmania_Region_5,Australia,Longford,-41.595,147.122,Y,195,1048,0,-41.595,147.122,,100005,5481,AU,reference grade,unknown,14458
Tasmania_Region_6,Australia,West Ulverstone,-41.159,146.146,Y,196,1045,0,-41.159,146.146,,100006,5491,AU,reference grade,unknown,14479
Tasmania_Region_7,Australia,Smithton,-40.85,145.133,Y,198,1041,0,-40.85,145.133,,100007,5488,AU,reference grade,unknown,14471
Tasmania_Region_8,Australia,Wynyard,-40.992,145.718,Y,197,1043,0,-40.992,145.718,,100008,5487,AU,reference grade,unknown,14470
Tasmania_Region_9,Australia,Sheffield,-41.43,146.338,Y,195,1045,0,-41.43,146.338,,100009,5486,AU,reference grade,unknown,14473
Tasmania_Region_10,Australia,Deloraine,-41.523,146.658,Y,195,1046,0,-41.523,146.658,,100010,5485,AU,reference grade,unknown,14466
Tasmania_Region_11,Australia,Perth,-41.578,147.172,Y,195,1048,0,-41.578,147.172,,100011,5490,AU,reference grade,unknown,14476
Tasmania_Region_12,Australia,Devonport,-41.185,146.345,Y,196,1045,0,-41.185,146.345,,100012,5480,AU,reference grade,unknown,14457
Tasmania_Region_14,Australia,Scottsdale,-41.162,147.515,Y,196,1049,0,-41.162,147.515,,100014,5478,AU,reference grade,unknown,14452
Tasmania_Region_15,Australia,Queenstown,-42.081,145.553,Y,193,1043,0,-42.081,145.553,,100015,233317,AU,reference grade,unknown,1342450
Tasmania_Region_16,Australia,Fingal,-41.638,147.967,Y,194,1050,0,-41.638,147.967,,100016,5474,AU,reference grade,unknown,14444
Tasmania_Region_17,Australia,Lilydale,-41.25,147.217,Y,196,1048,0,-41.25,147.217,,100017,5476,AU,reference grade,unknown,14446
Tasmania_Region_18,Australia,Exeter,-41.303,146.951,Y,196,1047,0,-41.303,146.951,,100018,5475,AU,reference grade,unknown,14445
Tasmania_Region_19,Australia,St Helens,-41.32,148.25,Y,196,1051,0,-41.32,148.25,,100019,5473,AU,reference grade,unknown,14443
Tasmania_Region_20,Australia,Campbell Town,-41.928,147.491,Y,193,1049,0,-41.928,147.491,,100020,5472,AU,reference grade,unknown,14439
Tasmania_Region_21,Australia,George Town,-41.111,146.836,Y,197,1047,0,-41.111,146.836,,100021,5477,AU,reference grade,unknown,14451
Tasmania_Region_22,Australia,Ti Tree Bend,-41.419,147.124,Y,195,1048,0,-41.419,147.124,,100022,5456,AU,reference grade,unknown,14404
Tasmania_Region_23,Australia,Gretna,-42.684,146.936,Y,190,1047,0,-42.684,146.936,,100023,5463,AU,reference grade,unknown,14425
Tasmania_Region_24,Australia,Cygnet,-43.159,147.072,Y,188,1048,0,-43.159,147.072,,100024,5464,AU,reference grade,unknown,14423
Tasmania_Region_25,Australia,Bream Creek,-42.819,147.817,Y,190,1050,0,-42.819,147.817,,100025,5467,AU,reference grade,unknown,14431
Tasmania_Region_26,Australia,Judbury,-43.01,146.94,Y,189,1047,0,-43.01,146.94,,100026,5465,AU,reference grade,unknown,14426
Tasmania_Region_27,Australia,Oatlands,-42.3,147.372,Y,192,1049,0,-42.3,147.372,,100027,5470,AU,reference grade,unknown,14436
Tasmania_Region_28,Australia,New Norfolk,-42.776,147.054,Y,190,1048,0,-42.776,147.054,,100028,5461,AU,reference grade,unknown,14419
Tasmania_Region_29,Australia,Geeveston,-43.17,146.925,Y,188,1047,0,-43.17,146.925,,100029,5462,AU,reference grade,unknown,14424
Tasmania_Region_30,Australia,Mornington,-42.861,147.404,Y,190,1049,0,-42.861,147.404,,100030,5460,AU,reference grade,unknown,14416
Tasmania_Region_31,Australia,Huonville,-43.03,147.05,Y,189,1048,0,-43.03,147.05,,100031,5469,AU,reference grade,unknown,14434
Tasmania_Region_32,Australia,Triabunna,-42.509,147.913,Y,191,1050,0,-42.509,147.913,,100032,5466,AU,reference grade,unknown,14429
Tasmania_Region_33,Australia,Glenorchy,-42.842,147.271,Y,190,1048,0,-42.842,147.271,,100033,5468,AU,reference grade,unknown,5079367
Tasmania_Region_34,Australia,Hobart,-42.855,147.315,Y,190,1048,0,-42.855,147.315,,100034,5459,AU,reference grade,unknown,14415
Melbourne,Australia,Brooklyn,-37.8220978,144.8471,Y,210,1041,,-37.8220978,144.8471,,100078,10826,AU,reference grade,unknown,36187
Trondheim,Norway,Elgeseter,63.419239,10.395945,Y,615,610,,63.419239,10.395945,,100079,10829,NO,reference grade,unknown,36227
Melbourne_2,Australia,Brighton,-37.9135475,144.998,Y,209,1041,,-37.9135475,144.998,,100080,10832,AU,reference grade,unknown,36214
Melbourne_3,Australia,Box Hill,-37.8287277,145.1324,Y,210,1041,,-37.8287277,145.1324,,100081,10836,AU,reference grade,unknown,36239
PL_1,Poland,"Gocza??????kowice Zdr????j, ul. Parkowa",49.93785,18.975594,Y,561,638,,49.93785,18.975594,,100082,10659,PL,reference grade,unknown,35478
Borsukowizna,Poland,"Borsukowizna, Szk??????????ka Le??????na",53.215492,23.642153,Y,574,653,,53.215492,23.642153,,100083,10842,PL,reference grade,unknown,36260
Mildura,Australia,Mildura,-34.19561,142.1616,Y,224,1032,,-34.19561,142.1616,,100085,270779,AU,reference grade,unknown,1562238
Stockholm,Sweden,"Kungsgatan, Norrk????ping",58.590397,16.178606,Y,595,629,,58.590397,16.178606,,100086,270755,SE,reference grade,unknown,1562142
Stockholm_2,Sweden,"??????sterv????g, Visby",57.637377,18.301129,Y,592,636,,57.637377,18.301129,,100087,270750,SE,reference grade,unknown,1562148
Stockholm_3,Sweden,"Tulegatan, Sundbyberg",59.3667459,17.9688665,Y,598,635,,59.3667459,17.9688665,,100088,270749,SE,reference grade,unknown,1562152
PL_2,Poland,"Bia??????a, ul. Kmicica",52.602534,19.6451,Y,571,640,,52.602534,19.6451,,100089,10857,PL,reference grade,unknown,2589397
Uppsala,Sweden,"Kungsgatan, Uppsala",59.853185,17.653329,Y,600,633,,59.853185,17.653329,,100090,270746,SE,reference grade,unknown,1562140
TW_1,"Taiwan, Province of China",???????????????????????? - ????????????,22.608711,120.312017,Y,451,962,,22.608711,120.312017,,100091,10663,TW,reference grade,unknown,35504
Stockholm_4,Sweden,"Hamngatan, Link????ping",58.40878,15.631343,Y,595,627,,58.40878,15.631343,,100092,270745,SE,reference grade,unknown,1562141
Bendigo,Australia,Bendigo,-36.7784,144.300064,Y,214,1039,,-36.7784,144.300064,,100093,10863,AU,reference grade,unknown,36370
NO_1,Norway,Bekkestua,59.91822,10.58393,Y,601,611,,59.91822,10.58393,,100094,10865,NO,reference grade,unknown,36379
IS_1,Iceland,Reykjavik Grensas,64.1301,-21.87465,Y,618,507,,64.1301,-21.87465,,100095,10665,IS,reference grade,unknown,35510
Melbourne_4,Australia,Dandenong,-37.98576,145.1987,Y,209,1042,,-37.98576,145.1987,,100096,10868,AU,reference grade,unknown,36397
Geelong,Australia,Geelong South,-38.17356,144.3703,Y,208,1039,,-38.17356,144.3703,,100097,10869,AU,reference grade,unknown,36389
Melbourne_5,Australia,Macleod,-37.722477,145.0576,Y,210,1041,,-37.722477,145.0576,,100098,10870,AU,reference grade,unknown,36398
Bergen,Norway,Danmarks plass,60.37408,5.34042,Y,602,594,,60.37408,5.34042,,100099,10875,NO,reference grade,unknown,36411
Spotswood,Australia,Spotswood,-37.82743,144.8801,Y,210,1041,,-37.82743,144.8801,,100100,232406,AU,reference grade,unknown,1337552
PL_3,Poland,"Zamo????????????, ul. Hrubieszowska",50.716628,23.290247,Y,564,652,,50.716628,23.290247,,100101,10668,PL,reference grade,unknown,36005
Lillehammer,Norway,Bankplassen,61.11295,10.46487,Y,605,610,,61.11295,10.46487,,100102,10880,NO,reference grade,unknown,36420
Drammen,Norway,Bangel????kka,59.73327,10.21167,Y,600,610,,59.73327,10.21167,,100103,10881,NO,reference grade,unknown,8950365
Drammen_2,Norway,Backeparken,59.749526,10.165301,Y,600,610,,59.749526,10.165301,,100104,10893,NO,reference grade,unknown,36504
Oslo,Norway,Smestad,59.9325,10.66987,Y,601,611,,59.9325,10.66987,,100105,10894,NO,reference grade,unknown,36514
Stockholm_5,Sweden,Sankt Eriksgatan,59.338921,18.035773,Y,598,635,,59.338921,18.035773,,100106,10924,SE,reference grade,unknown,36709
PL_4,Poland,"????ask, ul. Narutowicza",51.589208,19.131433,Y,567,638,,51.589208,19.131433,,100107,11571,PL,reference grade,unknown,39293
Rangiora,New Zealand,Rangiora,-43.307439,172.594745,Y,188,1129,,-43.307439,172.594745,,100108,784924,NZ,reference grade,unknown,4280438
IS_2,Iceland,Reykjavik Husdyragardurinn,64.138861,-21.873411,Y,618,507,,64.138861,-21.873411,,100109,10673,IS,reference grade,unknown,35576
PL_5,Poland,"K??????dzierzyn-Ko????le, ul. ????mia??????ego",50.349608,18.236575,Y,562,635,,50.349608,18.236575,,100110,10618,PL,reference grade,unknown,35275
Morwell_2,Australia,Morwell East,-38.229393,146.424454,Y,208,1046,,-38.229393,146.424454,,100112,10678,AU,reference grade,unknown,35570
PL_6,Poland,"Jelenia G????ra, ul. Ogi??????skiego",50.913433,15.765608,Y,565,627,,50.913433,15.765608,,100115,10625,PL,reference grade,unknown,35303
PL_7,Poland,"Elbl??????g, ul. Ba????¦y??????skiego",54.167847,19.410942,Y,578,639,,54.167847,19.410942,,100116,10691,PL,reference grade,unknown,35620
Beograd,Serbia,Veliki Crljeni,44.47580847,20.30891418,Y,539,642,,44.47580847,20.30891418,,100117,784180,RS,reference grade,unknown,4275765
Moe,Australia,Moe,-38.1864662,146.258331,Y,208,1045,,-38.1864662,146.258331,,100118,10703,AU,reference grade,unknown,35654
Oslo_2,Norway,Hjortnes,59.91126,10.70398,Y,601,611,,59.91126,10.70398,,100119,10715,NO,reference grade,unknown,35696
Beograd_2,Serbia,Beograd Zemun Ugrinova????ka,44.849212,20.377266,Y,540,642,,44.849212,20.377266,,100120,784153,RS,reference grade,unknown,4276193
TW_2,"Taiwan, Province of China",???????????????????????? - ????????????????,25.072611,121.493806,Y,461,966,,25.072611,121.493806,,100121,10717,TW,reference grade,unknown,35715
Beograd_3,Serbia,Beograd Zemun TB,44.835246,20.403299,Y,540,642,,44.835246,20.403299,,100122,784152,RS,reference grade,unknown,4276034
Beograd_4,Serbia,Beograd Vra????ar Dom zdravlja,44.796427,20.486154,Y,540,643,,44.796427,20.486154,,100123,784150,RS,reference grade,unknown,4276016
PL_8,Poland,"Pozna??????, ul. D??????browskiego",52.420319,16.877289,Y,571,631,,52.420319,16.877289,,100124,10720,PL,reference grade,unknown,35812
NO_2,Norway,"Minnesundvegen, Gj????vik",60.79089,10.6967,Y,604,611,,60.79089,10.6967,,100125,10721,NO,reference grade,unknown,35721
PL_9,Poland,"????yrard????w, ul. Roosevelta",52.053811,20.429892,Y,569,642,,52.053811,20.429892,,100126,10724,PL,reference grade,unknown,35732
Beograd_5,Serbia,Beograd Vin????a,44.766649,20.61098,Y,540,643,,44.766649,20.61098,,100127,784149,RS,reference grade,unknown,4275667
RS_1,Serbia,Beograd Top????iderska Zvezda,44.788646,20.444507,Y,540,642,,44.788646,20.444507,,100128,784148,RS,reference grade,unknown,4276099
PL_10,Poland,"Tarn????w, ul. Ks. Romana Sitko",50.018253,20.992578,Y,561,644,,50.018253,20.992578,,100129,10729,PL,reference grade,unknown,36516
Beograd_6,Serbia,Beograd Sur????in,44.7924,20.272734,Y,540,642,,44.7924,20.272734,,100130,784147,RS,reference grade,unknown,4275897
Beograd_7,Serbia,Beograd Stoj????ino Brdo,44.776953,20.535435,Y,540,643,,44.776953,20.535435,,100131,784146,RS,reference grade,unknown,4276051
Beograd_8,Serbia,Beograd Sopot,44.519807,20.578488,Y,539,643,,44.519807,20.578488,,100132,784145,RS,reference grade,unknown,4275999
Olsztyn,Poland," Olsztyn, ul. Puszkina",53.789233,20.486075,Y,576,643,,53.789233,20.486075,,100133,10743,PL,reference grade,unknown,35836
Beograd_9,Serbia,Beograd Ov????a,44.884112,20.527552,Y,541,643,,44.884112,20.527552,,100134,784144,RS,reference grade,unknown,4275907
Beograd_10,Serbia,Beograd Oml. brigada ,44.805925,20.398811,Y,540,642,,44.805925,20.398811,,100135,784143,RS,reference grade,unknown,4275942
PL_11,Poland,"Jaros??????aw, ul. Pruchnicka",50.012083,22.674772,Y,561,650,,50.012083,22.674772,,100136,10627,PL,reference grade,unknown,35322
RS_2,Serbia,Beograd Obrenovac U??????????e,44.629741,20.011135,Y,540,641,,44.629741,20.011135,,100137,784142,RS,reference grade,unknown,4276214
Warszawa,Poland,"Warszawa, ul. Bajkowa",52.188474,21.176233,Y,570,645,,52.188474,21.176233,,100139,10750,PL,reference grade,unknown,35863
Obrenovac,Serbia,Beograd Obrenovac,44.66999958,20.19733161,Y,540,642,,44.66999958,20.19733161,,100140,784141,RS,reference grade,unknown,5123814
Beograd_Mladenovac,Serbia,Beograd Mladenovac,44.444047,20.696033,Y,539,643,,44.444047,20.696033,,100141,784140,RS,reference grade,unknown,4276075
RS_3,Serbia,Beograd Le????tane,44.728534,20.580721,Y,540,643,,44.728534,20.580721,,100142,784139,RS,reference grade,unknown,4275793
Lazarevac_,Serbia,Beograd Lazarevac ,44.384113,20.265436,Y,539,642,,44.384113,20.265436,,100143,784138,RS,reference grade,unknown,4275878
Melton,Australia,Melton,-37.7064552,144.5669,Y,210,1040,,-37.7064552,144.5669,,100144,10751,AU,reference grade,unknown,35868
Beograd_11,Serbia,Beograd Fran????a Deperea,44.794262,20.463173,Y,540,642,,44.794262,20.463173,,100145,784137,RS,reference grade,unknown,4276188
Beograd_12,Serbia,Beograd Dragi????a Mi????ovi??????,44.777237,20.457029,Y,540,642,,44.777237,20.457029,,100146,784136,RS,reference grade,unknown,4275718
PL_12,Poland,"Krak????w, Aleja Krasi??????skiego",50.057678,19.926189,Y,561,641,,50.057678,19.926189,,100147,10752,PL,reference grade,unknown,35870
Melbourne_6,Australia,Melbourne CBD,-37.8073959,144.97,Y,210,1041,,-37.8073959,144.97,,100148,10753,AU,reference grade,unknown,35872
Beograd_13,Serbia,Beograd Despota Stefana ,44.81681468,20.4699406,Y,540,643,,44.81681468,20.4699406,,100149,784135,RS,reference grade,unknown,4276176
Beograd_14,Serbia,Beograd Bor????a,44.873952,20.446585,Y,540,642,,44.873952,20.446585,,100150,784134,RS,reference grade,unknown,4275855
Beograd_15,Serbia,Beograd Be????anijska kosa,44.815028,20.3779,Y,540,642,,44.815028,20.3779,,100151,784133,RS,reference grade,unknown,4275903
Beograd_16,Serbia,Beograd Barajevo,44.58871,20.429121,Y,539,642,,44.58871,20.429121,,100152,784132,RS,reference grade,unknown,4276120
Beograd_Banovo_brdo,Serbia,Beograd Banovo brdo,44.777284,20.409701,Y,540,642,,44.777284,20.409701,,100153,784131,RS,reference grade,unknown,4276078
Beograd_17,Serbia,Beograd Ada petlja,44.79134339,20.42560078,Y,540,642,,44.79134339,20.42560078,,100154,784130,RS,reference grade,unknown,4276147
Beograd_18,Serbia,Beograd Ada Marina,44.790166,20.4169,Y,540,642,,44.790166,20.4169,,100155,784129,RS,reference grade,unknown,4275917
HU_1,Hungary,Tatab????nya S????gv????ri u.,47.56325,18.4087,Y,551,636,,47.56325,18.4087,,100156,783942,HU,reference grade,unknown,4273129
PL_13,Poland,"Nak??????o nad Noteci??????, ul. ????w. Wawrzy??????ca",53.136681,17.591539,Y,574,633,,53.136681,17.591539,,100157,60180,PL,reference grade,unknown,1331070
Point_Cook,Australia,Point Cook,-37.9263153,144.7567,Y,209,1040,,-37.9263153,144.7567,,100158,10766,AU,reference grade,unknown,35938
HU_2,Hungary,Budapest Erzs????bet t????r,47.498948,19.051903,Y,551,638,,47.498948,19.051903,,100159,783939,HU,reference grade,unknown,4273175
HU_3,Hungary,Duna????jv????ros,46.965924,18.935198,Y,549,638,,46.965924,18.935198,,100160,783931,HU,reference grade,unknown,4272911
Traralgon,Australia,Traralgon,-38.1942825,146.531464,Y,208,1046,,-38.1942825,146.531464,,100161,10771,AU,reference grade,unknown,35974
Oslo_3,Norway,Spikersuppa,59.914051,10.735978,Y,601,611,,59.914051,10.735978,,100162,221402,NO,reference grade,unknown,1287322
Budapest_Gergely_utca,Hungary,Budapest Gergely utca,47.466982,19.157219,Y,551,638,,47.466982,19.157219,,100163,783927,HU,reference grade,unknown,4273177
HU_4,Hungary,Kecskem????t,46.90234,19.68875,Y,549,640,,46.90234,19.68875,,100164,783926,HU,reference grade,unknown,4272922
HU_5,Hungary,V????rpalota,47.20167,18.143025,Y,550,635,,47.20167,18.143025,,100165,783924,HU,reference grade,unknown,4273285
HU_6,Hungary,Budapest Gilice t????r,47.43,19.18111,Y,551,638,,47.43,19.18111,,100166,783920,HU,reference grade,unknown,4272993
HU_7,Hungary,Veszpr????m,47.089574,17.905054,Y,549,634,,47.089574,17.905054,,100167,783914,HU,reference grade,unknown,4272937
HU_8,Hungary,Budapest K??????rak????s park,47.544291,19.144177,Y,551,638,,47.544291,19.144177,,100168,783913,HU,reference grade,unknown,4272760
Kazincbarcika,Hungary,Kazincbarcika,48.247033,20.61445,Y,554,643,,48.247033,20.61445,,100169,783899,HU,reference grade,unknown,4273147
TW_3,"Taiwan, Province of China",?????????????????????? - ??????????????,24.151958,120.641092,Y,458,963,,24.151958,120.641092,,100170,10774,TW,reference grade,unknown,36085
Warszawa_2,Poland,"Warszawa, ul. Chro??????cickiego",52.207742,20.906073,Y,570,644,,52.207742,20.906073,,100171,10775,PL,reference grade,unknown,35993
Warszawa_3,Poland,"Warszawa, al. Niepodleg??????o??????ci",52.219298,21.004724,Y,570,644,,52.219298,21.004724,,100172,10776,PL,reference grade,unknown,36162
Oslo_4,Norway,Manglerud,59.89864,10.8149,Y,601,612,,59.89864,10.8149,,100173,10777,NO,reference grade,unknown,35998
Szolnok,Hungary,Szolnok,47.17712,20.19688,Y,550,642,,47.17712,20.19688,,100175,783896,HU,reference grade,unknown,4273071
Bergen_2,Norway,"Rolland, ??????sane",60.462665,5.332447,Y,603,594,,60.462665,5.332447,,100176,10792,NO,reference grade,unknown,36426
HU_9,Hungary,B????k????scsaba,46.668115,21.06731,Y,548,644,,46.668115,21.06731,,100178,783894,HU,reference grade,unknown,6424329
Oslo_5,Norway,Vahl skole,59.9169444,10.766,Y,601,611,,59.9169444,10.766,,100179,225293,NO,reference grade,unknown,1302872
HU_10,Hungary,Hern????dszurdok,48.47295,21.212,Y,555,645,,48.47295,21.212,,100182,783892,HU,reference grade,unknown,4273310
HU_11,Hungary,Ny????rjes,47.89966,19.946894,Y,553,641,,47.89966,19.946894,,100183,783889,HU,reference grade,unknown,4273004
HU_12,Hungary,Miskolc Alf????ldi,48.09042,20.81201,Y,553,644,,48.09042,20.81201,,100184,783888,HU,reference grade,unknown,6913015
EMI_mobil_2,Hungary,EMI mobil 2,48.099356,20.727049,Y,553,643,,48.099356,20.727049,,100185,783887,HU,reference grade,unknown,4273306
HU_13,Hungary,Sz????kesfeh????rv????r,47.195944,18.400246,Y,550,636,,47.195944,18.400246,,100186,783885,HU,reference grade,unknown,4272780
Bangkok,Thailand,"Phra Kanong District Office,  Bangkok",13.691511,100.61457,Y,416,899,,13.691511,100.61457,,100187,225574,TH,reference grade,southeast_asia,1304286
Ajka,Hungary,Ajka,47.103172,17.561381,Y,549,633,,47.103172,17.561381,,100188,783884,HU,reference grade,unknown,4273011
HU_14,Hungary,Budapest Honv????d,47.522693,19.069867,Y,551,638,,47.522693,19.069867,,100189,783882,HU,reference grade,unknown,4272705
HU_15,Hungary,P????cs Nevel????si K????zpont,46.040885,18.220884,Y,545,635,,46.040885,18.220884,,100190,783879,HU,reference grade,unknown,4272866
HU_16,Hungary,Budapest Budat????t????ny,47.40605,19.0099,Y,551,638,,47.40605,19.0099,,100191,783877,HU,reference grade,unknown,4273092
K_Puszta,Hungary,K-Puszta,46.965244,19.54528,Y,549,640,,46.965244,19.54528,,100192,783874,HU,reference grade,unknown,4273301
Phitsanulok,Thailand,Chom Nan Chaloem Phrakiat Public Park,16.820833,100.258056,Y,428,898,,16.820833,100.258056,,100193,225585,TH,reference grade,southeast_asia,1304133
CY_1,Cyprus,Ormidia - Industrial Station,34.9923,33.779,Y,501,685,,34.9923,33.779,,100194,663502,CY,reference grade,unknown,7973389
CY_2,Cyprus,Larnaca - Traffic Station,34.9166667,33.6275,Y,501,685,,34.9166667,33.6275,,100195,663501,CY,reference grade,unknown,3646861
Bangkok_2,Thailand,"Ladphrao District Office, Bangkok",13.803587,100.607535,Y,416,899,,13.803587,100.607535,,100196,225591,TH,reference grade,southeast_asia,1304377
Bangkok_3,Thailand,Big C Supercenter Bang Na,13.667987,100.635313,Y,416,899,,13.667987,100.635313,,100197,225593,TH,reference grade,southeast_asia,1304057
CY_3,Cyprus,Nicosia - Traffic Station,35.15192247,33.34791996,Y,502,684,,35.15192247,33.34791996,,100198,663500,CY,reference grade,unknown,3646901
CY_4,Cyprus,Paphos - Traffic Station,34.7752778,32.4219444,Y,500,681,,34.7752778,32.4219444,,100199,663499,CY,reference grade,unknown,3646910
CY_5,Cyprus,Zygi - Industrial Station,34.7294444,33.3375,Y,500,684,,34.7294444,33.3375,,100200,663498,CY,reference grade,unknown,3646882
CY_6,Cyprus,Kalavasos - Industrial Station,34.77153,33.29623,Y,500,684,,34.77153,33.29623,,100202,663495,CY,reference grade,unknown,7973444
CY_7,Cyprus,Paralimni - Traffic Station,35.04569276,33.97773488,Y,501,686,,35.04569276,33.97773488,,100203,663494,CY,reference grade,unknown,3646893
CY_8,Cyprus,Limassol - Traffic Station,34.6861111,33.0355556,Y,500,683,,34.6861111,33.0355556,,100204,663493,CY,reference grade,unknown,3646869
PL_14,Poland,"Ko??????cian, ul. Maya",52.090436,16.636381,Y,569,630,,52.090436,16.636381,,100205,634015,PL,reference grade,unknown,3490325
PL_15,Poland,"????uk????w, Bulwar 100-lecia Odzyskania Niepodleg??????o??????ci ",51.930734,22.372502,Y,569,649,,51.930734,22.372502,,100206,479117,PL,reference grade,unknown,2704494
PL_16,Poland,"Pu??????tusk, ul. Mickiewicza",52.703591,21.072603,Y,572,644,,52.703591,21.072603,,100207,475237,PL,reference grade,unknown,2666313
Bangkok_4,Thailand,Lat Krabang Hospital,13.72205,100.784069,Y,416,900,,13.72205,100.784069,,100208,225613,TH,reference grade,southeast_asia,1304281
Nakhon_Phanom,Thailand,"Meteorological stations, Nakhon Phanom",17.412345,104.7786123,Y,431,912,,17.412345,104.7786123,,100209,225615,TH,reference grade,southeast_asia,1304331
Oslo_6,Norway,Brynbanen,59.9156,10.82517,Y,601,612,,59.9156,10.82517,,100210,463976,NO,reference grade,unknown,2602412
Konstancin_Jeziorna,Poland,"Konstancin-Jeziorna, ul. ????eromskiego",52.082277,21.124598,Y,569,645,,52.082277,21.124598,,100211,461706,PL,reference grade,unknown,2589398
Bangkok_5,Thailand,"Huai Khwang District Office, Bangkok",13.77682,100.579543,Y,416,899,,13.77682,100.579543,,100212,225622,TH,reference grade,southeast_asia,1304203
PL_17,Poland,"????wiecie, al. Jana Paw??????a II",53.40758,18.428751,Y,575,636,,53.40758,18.428751,,100213,457921,PL,reference grade,unknown,2569039
PL_18,Poland,"????ag????w, ul. Zap??????otnia",50.778479,21.081224,Y,564,644,,50.778479,21.081224,,100214,455599,PL,reference grade,unknown,2555014
PL_19,Poland,"Rzesz????w, ul. Starzy??????skiego",50.060381,21.980511,Y,561,647,,50.060381,21.980511,,100215,455341,PL,reference grade,unknown,2553430
PL_20,Poland,"Rzesz????w, ul. S??????oci??????ska",50.024856,22.047937,Y,561,648,,50.024856,22.047937,,100216,455340,PL,reference grade,unknown,2553429
Bangkok_6,Thailand,80th Anniversary Commemoration Park,13.7716446,100.4681128,Y,416,898,,13.7716446,100.4681128,,100217,368406,TH,reference grade,southeast_asia,2076224
Nonthaburi,Thailand,Department of Disease Control,13.852778,100.529444,Y,416,899,,13.852778,100.529444,,100218,225629,TH,reference grade,southeast_asia,1304077
Bangkok_7,Thailand,"60th Anniversary of Queen Sirikit Park ,Kheha Romklao Road, Lat Krabang, Bangkok",13.7631141,100.7302101,Y,416,899,,13.7631141,100.7302101,,100219,368404,TH,reference grade,southeast_asia,2076214
Bangkok_8,Thailand,National Economic and Social Development Council Office,13.756281,100.514267,Y,416,899,,13.756281,100.514267,,100220,225631,TH,reference grade,southeast_asia,1304293
Bangkok_9,Thailand,"Chomthong District Office, Bangkok",13.677757,100.483861,Y,416,899,,13.677757,100.483861,,100221,225632,TH,reference grade,southeast_asia,1304130
Bangkok_10,Thailand,Serithai Park,13.7855673,100.6733359,Y,416,899,,13.7855673,100.6733359,,100222,368402,TH,reference grade,southeast_asia,2076231
Bangkok_11,Thailand,"Wang Thonglang District Office, Bangkok",13.778981,100.622294,Y,416,899,,13.778981,100.622294,,100223,225635,TH,reference grade,southeast_asia,1304123
Bangkok_12,Thailand,"Bang Kho Laem District Office, Bangkok (Mobile)",13.69304,100.50244,Y,416,899,,13.69304,100.50244,,100224,368400,TH,reference grade,southeast_asia,2076219
Bangkok_13,Thailand,Ramintra Sports Park,13.8778763,100.6207085,Y,417,899,,13.8778763,100.6207085,,100225,368392,TH,reference grade,southeast_asia,2076223
Bangkok_14,Thailand,Library under King Taksin Bridge,13.719705,100.508782,Y,416,899,,13.719705,100.508782,,100226,225640,TH,reference grade,southeast_asia,1304353
Bangkok_15,Thailand,"Bang Phlat District Office, Bangkok",13.793965,100.504956,Y,416,899,,13.793965,100.504956,,100227,225642,TH,reference grade,southeast_asia,1304146
Bangkok_16,Thailand,"Saphan Sung District Office, Bangkok",13.768892,100.685743,Y,416,899,,13.768892,100.685743,,100229,225651,TH,reference grade,southeast_asia,1304179
Bangkok_17,Thailand,"Bang Sue District Office, Bangkok",13.809596,100.537883,Y,416,899,,13.809596,100.537883,,100231,225656,TH,reference grade,southeast_asia,1304256
Bangkok_18,Thailand,"Chaloem Phrakiat Rama 9 Park Min buri, Bangkok",13.813578,100.73208,Y,416,899,,13.813578,100.73208,,100232,225660,TH,reference grade,southeast_asia,1304438
Swan_Hill,Australia,Swan Hill,-35.34331,143.5341,Y,220,1036,,-35.34331,143.5341,,100233,304222,AU,reference grade,unknown,1728679
Bangkok_19,Thailand,Mahaisawan Intersection,13.70515,100.48465,Y,416,899,,13.70515,100.48465,,100235,225667,TH,reference grade,southeast_asia,1304114
Bangkok_20,Thailand,"Lak Si District Office, Bangkok",13.887395,100.579247,Y,417,899,,13.887395,100.579247,,100237,225677,TH,reference grade,southeast_asia,1304185
Bangkok_21,Thailand,"Bang Khae District Office, Bangkok",13.696314,100.409049,Y,416,898,,13.696314,100.409049,,100238,225678,TH,reference grade,southeast_asia,1304073
Bangkok_22,Thailand,King Mongkut's University of Technology Thonburi,13.651004,100.496673,Y,416,899,,13.651004,100.496673,,100239,225682,TH,reference grade,southeast_asia,1304111
Oslo_7,Norway,Bygd????y Alle,59.9193,10.69651,Y,601,611,,59.9193,10.69651,,100244,10817,NO,reference grade,unknown,36140
PL_21,Poland,"August????w, Uzdrowisko",53.85255,22.984686,Y,576,651,,53.85255,22.984686,,100245,10646,PL,reference grade,unknown,35418
Yinnar,Australia,Yinnar,-38.32676,146.3261,Y,208,1045,,-38.32676,146.3261,,100246,10819,AU,reference grade,unknown,9969693
Miskolc,Hungary,"""Miskolc Buza""",48.106944,20.790006,Y,553,644,,48.106944,20.790006,,100247,3944,HU,reference grade,unknown,4272870
TW_4,"Taiwan, Province of China",?????????????????????? - ??????????????????,23.711853,120.544994,Y,456,963,,23.711853,120.544994,,100248,3906,TW,reference grade,unknown,9037
IS_3,Iceland,Hafnarfj????r????ur Nor????urhella,64.04416,-21.98535,Y,617,507,,64.04416,-21.98535,,100249,7658,IS,reference grade,unknown,22281
Curacao,Cura??ao,US Diplomatic Post: Curacao,12.1696,-68.99,Y,410,356,,12.1696,-68.99,,100250,7649,CW,reference grade,unknown,22957
PL_22,Poland,"Ryman????w Zdr????j, ul. Parkowa",49.546539,21.851006,Y,559,647,,49.546539,21.851006,,100251,8237,PL,reference grade,unknown,24003
TW_5,"Taiwan, Province of China",???????????????????????? - ?????????????,22.883583,120.530542,Y,453,963,,22.883583,120.530542,,100252,3905,TW,reference grade,unknown,9026
Warszawa_4,Poland,"Warszawa, ul. Wokalna",52.160772,21.033819,Y,570,644,,52.160772,21.033819,,100253,6386,PL,reference grade,unknown,35055
TW_6,"Taiwan, Province of China",???????????????????????? - ?????????????,24.982528,121.451861,Y,461,966,,24.982528,121.451861,,100255,3904,TW,reference grade,unknown,7930627
TW_7,"Taiwan, Province of China",?????????????????????? - ????????????????,23.971306,121.599769,Y,457,966,,23.971306,121.599769,,100256,3903,TW,reference grade,unknown,9035
Szczecin,Poland,"Szczecin, ul. Andrzejewskiego",53.380975,14.663347,Y,575,624,,53.380975,14.663347,,100257,6384,PL,reference grade,unknown,35239
TW_8,"Taiwan, Province of China",??????????????????????? - ?????????????????,23.913,120.685306,Y,457,963,,23.913,120.685306,,100258,3901,TW,reference grade,unknown,9000
TW_9,"Taiwan, Province of China",???????????????????????? - ??????????????,25.017,121.516306,Y,461,966,,25.017,121.516306,,100259,3900,TW,reference grade,unknown,9013
TW_10,"Taiwan, Province of China",?????????????????? - ????????????,24.747917,121.746394,Y,460,967,,24.747917,121.746394,,100260,3899,TW,reference grade,unknown,8998
TW_11,"Taiwan, Province of China",???????????????????????? - ???????????????,22.757506,120.305689,Y,452,962,,22.757506,120.305689,,100261,3876,TW,reference grade,unknown,8985
TW_12,"Taiwan, Province of China",????????????????????? - ??????????????,23.925175,120.409653,Y,457,962,,23.925175,120.409653,,100262,3875,TW,reference grade,unknown,9097
Stockholm_7,Sweden,Hornsgatan,59.31713214,18.04878744,Y,598,635,,59.31713214,18.04878744,,100264,6161,SE,reference grade,unknown,16843
PL_23,Poland,"K??????odzko, ul. Szkolna",50.433493,16.65366,Y,563,630,,50.433493,16.65366,,100265,7279,PL,reference grade,unknown,36483
TW_13,"Taiwan, Province of China",?????????????????????? - ??????????????,24.225628,120.568794,Y,458,963,,24.225628,120.568794,,100266,3873,TW,reference grade,unknown,8799
Brumunddal,Norway,Ringsakervegen,60.88593,10.93785,Y,605,612,,60.88593,10.93785,,100267,7300,NO,reference grade,unknown,5079434
PL_24,Poland,"????????d????, ul. Czernika",51.75805,19.529786,Y,568,639,,51.75805,19.529786,,100268,7252,PL,reference grade,unknown,35412
TW_14,"Taiwan, Province of China",????????????????????? - ????????????????,23.045083,121.161933,Y,453,965,,23.045083,121.161933,,100269,3872,TW,reference grade,unknown,8792
TW_15,"Taiwan, Province of China",???????????????????????? - ????????????,25.1645,121.449239,Y,462,966,,25.1645,121.449239,,100270,3870,TW,reference grade,unknown,8784
TW_16,"Taiwan, Province of China",????????????????????? - ????????????????,23.569031,119.566158,Y,455,960,,23.569031,119.566158,,100271,3868,TW,reference grade,unknown,8794
TW_17,"Taiwan, Province of China",??????????????????????? - ???????????????,25.129167,121.760056,Y,462,967,,25.129167,121.760056,,100272,3857,TW,reference grade,unknown,9095
TW_18,"Taiwan, Province of China",?????????????????????? - ?????????????,24.952786,121.203986,Y,461,965,,24.952786,121.203986,,100273,3855,TW,reference grade,unknown,8718
TW_19,"Taiwan, Province of China",???????????????????? - ??????????????,22.673081,120.488033,Y,452,963,,22.673081,120.488033,,100275,3851,TW,reference grade,unknown,8711
TW_20,"Taiwan, Province of China",??????????????????????? - ??????????????,23.756389,120.677306,Y,456,963,,23.756389,120.677306,,100276,3850,TW,reference grade,unknown,8721
TW_21,"Taiwan, Province of China",????????????????????? - ???????????????,22.755358,121.15045,Y,452,965,,22.755358,121.15045,,100277,3847,TW,reference grade,unknown,8709
TW_22,"Taiwan, Province of China",???????????????????????? - ?????????????,25.046503,121.507972,Y,461,966,,25.046503,121.507972,,100278,3846,TW,reference grade,unknown,7930492
Lima_2,Peru,SAN MARTIN DE PORRES,-12.008889,-77.084472,Y,313,330,,-12.008889,-77.084472,,100279,2351,PE,reference grade,unknown,4319
PL_25,Poland,"Ko??????cierzyna, ul. Targowa",54.120694,17.975861,Y,577,635,,54.120694,17.975861,,100280,7210,PL,reference grade,unknown,35932
PL_26,Poland,"Po??????aniec, ul. Ruszcza??????ska",50.429014,21.277367,Y,563,645,,50.429014,21.277367,,100283,7785,PL,reference grade,unknown,22616
IS_4,Iceland,K????pavogur Dalsm????ri,64.10495,-21.889,Y,617,507,,64.10495,-21.889,,100285,7659,IS,reference grade,unknown,36495
PL_27,Poland,"Suwa??????ki, ul. Pu??????askiego 26",54.115897,22.938464,Y,577,650,,54.115897,22.938464,,100287,6522,PL,reference grade,unknown,18409
unknown,Norway,Olav V gate,67.275501,14.419057,Y,630,623,,67.275501,14.419057,,100288,6502,NO,reference grade,unknown,35126
Bydgoszcz,Poland,"Bydgoszcz, ul. Warszawska",53.134083,17.995708,Y,574,635,,53.134083,17.995708,,100289,7961,PL,reference grade,unknown,23068
Katowice,Poland,"Katowice, ul. Plebiscytowa/A4",50.246795,19.019469,Y,562,638,,50.246795,19.019469,,100290,7274,PL,reference grade,unknown,35208
Nisko,Poland,"Nisko, ul. Szklarniowa",50.529892,22.112467,Y,563,648,,50.529892,22.112467,,100291,7273,PL,reference grade,unknown,34915
PL_28,Poland,"Piast????w, ul. Pu??????askiego",52.191728,20.837489,Y,570,644,,52.191728,20.837489,,100292,6387,PL,reference grade,unknown,35596
HU_17,Hungary,"""Pecs Boszorkany""",46.080278,18.211122,Y,545,635,,46.080278,18.211122,,100293,3968,HU,reference grade,unknown,35823
Lima_3,Peru,CAMPO DE MARTE,-12.070544,-77.043214,Y,313,330,,-12.070544,-77.043214,,100294,2415,PE,reference grade,unknown,4672
Lima_4,Peru,SANTA ANITA,-12.043022,-76.971444,Y,313,331,,-12.043022,-76.971444,,100295,2397,PE,reference grade,unknown,4480
KR,"Korea, Republic of",??????????????????????,35.2341412,128.6646236,Y,502,989,,35.2341412,128.6646236,,100299,2623455,KR,reference grade,east_asia,8536966
KR_2,"Korea, Republic of",????????????????????????,38.1063175,127.7080039,Y,513,986,,38.1063175,127.7080039,,100300,2623453,KR,reference grade,east_asia,8535717
KR_3,"Korea, Republic of",????????????????,38.013429,127.034161,Y,513,984,,38.013429,127.034161,,100303,2623451,KR,reference grade,east_asia,8534192
KR_4,"Korea, Republic of",????????????????????????????,35.20958,128.9713671,Y,502,990,,35.20958,128.9713671,,100304,2623434,KR,reference grade,east_asia,8535269
KR_5,"Korea, Republic of",???????????????????????,36.914275,127.059597,Y,509,984,,36.914275,127.059597,,100305,2623432,KR,reference grade,east_asia,8535365
KR_6,"Korea, Republic of",????????????????????????,37.617315,127.07512,Y,511,984,,37.617315,127.07512,,100307,2623430,KR,reference grade,east_asia,8536038
KR_7,"Korea, Republic of",???????????????????????????????????,37.905689,127.72601,Y,513,986,,37.905689,127.72601,,100310,2623427,KR,reference grade,east_asia,8537220
KR_8,"Korea, Republic of",??????????????????????????,35.536392,129.35595,Y,503,991,,35.536392,129.35595,,100329,2626532,KR,reference grade,east_asia,8607718
KR_9,"Korea, Republic of",????????????????????????,36.78279,127.120668,Y,508,984,,36.78279,127.120668,,100330,2625191,KR,reference grade,east_asia,8546259
KR_10,"Korea, Republic of",??????????????????????,37.938413,124.645669,Y,513,976,,37.938413,124.645669,,100331,2624491,KR,reference grade,east_asia,8547473
KR_11,"Korea, Republic of",?????????????????,34.937342,127.693427,Y,501,986,,34.937342,127.693427,,100332,2624490,KR,reference grade,east_asia,8551662
KR_12,"Korea, Republic of",????????????????????????????????????????????,35.55809,129.28116,Y,503,991,,35.55809,129.28116,,100333,2624291,KR,reference grade,east_asia,8551664
KR_13,"Korea, Republic of",???????¦??????????????,35.218056,126.8925,Y,502,983,,35.218056,126.8925,,100334,2624057,KR,reference grade,east_asia,8548961
KR_14,"Korea, Republic of",????????????????????????,37.5175623,127.0472893,Y,511,984,,37.5175623,127.0472893,,100335,2623426,KR,reference grade,east_asia,8537174
KR_15,"Korea, Republic of",????????????????????????,37.545089,127.136806,Y,511,984,,37.545089,127.136806,,100342,2623424,KR,reference grade,east_asia,8534675
KR_16,"Korea, Republic of",?????????????????????????????????,37.433169,127.164372,Y,511,984,,37.433169,127.164372,,100344,2623422,KR,reference grade,east_asia,8536375
KR_17,"Korea, Republic of",????????????????????,37.373823,126.73289,Y,510,983,,37.373823,126.73289,,100348,2623407,KR,reference grade,east_asia,8534790
KR_18,"Korea, Republic of",?????????????? ??????????????,37.496332,126.643072,Y,511,982,,37.496332,126.643072,,100350,2623405,KR,reference grade,east_asia,8535243
KR_19,"Korea, Republic of",?????????????????????,36.905231,127.964141,Y,509,986,,36.905231,127.964141,,100352,2623403,KR,reference grade,east_asia,8534333
Stawell,Australia,Stawell,-37.05928,142.7799,Y,213,1034,,-37.05928,142.7799,,100353,2892210,AU,reference grade,unknown,9560415
TW_23,"Taiwan, Province of China",?????????????????????? - ??????????????,23.46477865,120.4412515,Y,455,962,,23.46477865,120.4412515,,100363,2395594,TW,reference grade,unknown,7930693
TW_24,"Taiwan, Province of China",???????????????????? - ????????????,23.46538,120.2478,Y,455,962,,23.46538,120.2478,,100364,2395595,TW,reference grade,unknown,7930719
TW_25,"Taiwan, Province of China",???????????????????? - ??????????????(????????????????),22.260899,120.651472,Y,450,963,,22.260899,120.651472,,100365,2395596,TW,reference grade,unknown,7930716
TW_26,"Taiwan, Province of China",????????????????????? - ?????????????,23.85493056,120.2696417,Y,456,962,,23.85493056,120.2696417,,100366,2395599,TW,reference grade,unknown,7930524
TW_27,"Taiwan, Province of China",????????????????????? - ???????????????????¦??????????????????????¦????,23.96117,120.56373,Y,457,963,,23.96117,120.56373,,100367,2395600,TW,reference grade,unknown,7930503
TW_28,"Taiwan, Province of China",???????????????????????? - ????????????????(??????????????),24.94902778,121.3835278,Y,461,965,,24.94902778,121.3835278,,100368,2395602,TW,reference grade,unknown,7930534
TW_29,"Taiwan, Province of China",???????????????????????? - ??????????????,25.07798949,121.3654898,Y,461,965,,25.07798949,121.3654898,,100369,2395603,TW,reference grade,unknown,7930711
TW_30,"Taiwan, Province of China",???????????????????????? - ?????????????,25.06624,121.64081,Y,461,966,,25.06624,121.64081,,100370,2395604,TW,reference grade,unknown,7930550
TW_31,"Taiwan, Province of China",?????????????????????? - ??????????????,24.8056356,120.9723675,Y,460,964,,24.8056356,120.9723675,,100371,2395605,TW,reference grade,unknown,7930486
TW_32,"Taiwan, Province of China",???????????????????? - ??????????????,24.90009696,121.0388689,Y,461,964,,24.90009696,121.0388689,,100372,2395606,TW,reference grade,unknown,7930656
TW_33,"Taiwan, Province of China",???????????????????? - ?????????????,24.74091408,121.0889549,Y,460,964,,24.74091408,121.0889549,,100373,2395607,TW,reference grade,unknown,7930522
TW_34,"Taiwan, Province of China",???????????????????????? - ??????????????????,23.11337642,120.2974053,Y,453,962,,23.11337642,120.2974053,,100374,2395615,TW,reference grade,unknown,7930713
TW_35,"Taiwan, Province of China",???????????????????????? - ????????????????,23.048197,120.2175,Y,453,962,,23.048197,120.2175,,100375,2395616,TW,reference grade,unknown,7930701
TW_36,"Taiwan, Province of China",???????????????????????? - ????????????????,22.98928311,120.219479,Y,453,962,,22.98928311,120.219479,,100376,2395617,TW,reference grade,unknown,7930633
TW_37,"Taiwan, Province of China",???????????????????????? - ????????????????????¦??????????????????????¦????,23.17904722,120.2458306,Y,454,962,,23.17904722,120.2458306,,100377,2395618,TW,reference grade,unknown,7930600
TW_38,"Taiwan, Province of China",????????????????????????? - ??????????????,24.38248443,120.7595675,Y,459,963,,24.38248443,120.7595675,,100378,2395619,TW,reference grade,unknown,7930697
TW_39,"Taiwan, Province of China",????????????????????????? - ???????????????????,24.56499183,120.8201147,Y,459,964,,24.56499183,120.8201147,,100379,2395620,TW,reference grade,unknown,7930533
TW_40,"Taiwan, Province of China",????????????????????????? - ??????????????,24.69690679,120.8986929,Y,460,964,,24.69690679,120.8986929,,100380,2395621,TW,reference grade,unknown,7930715
TW_41,"Taiwan, Province of China",?????????????????????? - ??????????????,23.702175,120.1993333,Y,456,962,,23.702175,120.1993333,,100381,2395623,TW,reference grade,unknown,7930688
TW_42,"Taiwan, Province of China",???????????????????????? - ??????????????????,22.63390278,120.2867611,Y,452,962,,22.63390278,120.2867611,,100382,2395624,TW,reference grade,unknown,7930549
TW_43,"Taiwan, Province of China",???????????????????????? - ???????????????,22.6044507,120.3083336,Y,451,962,,22.6044507,120.3083336,,100383,2395625,TW,reference grade,unknown,7930705
TW_44,"Taiwan, Province of China",???????????????????????? - ????????????????????¦??????????????????????¦????,22.87985556,120.24535,Y,453,962,,22.87985556,120.24535,,100384,2395626,TW,reference grade,unknown,7930721
TW_45,"Taiwan, Province of China",???????????????????????? - ??????????????,22.628126,120.357422,Y,452,962,,22.628126,120.357422,,100385,2395627,TW,reference grade,unknown,7930491
KR_20,"Korea, Republic of",????????????????????????????,36.474172,127.252529,Y,507,984,,36.474172,127.252529,,100387,2624055,KR,reference grade,east_asia,8540127
KR_21,"Korea, Republic of",??????????????????????,36.982086,127.919206,Y,509,986,,36.982086,127.919206,,100389,2623754,KR,reference grade,east_asia,8537514
KR_22,"Korea, Republic of",???????????????????????????,37.8569773,127.7500616,Y,512,986,,37.8569773,127.7500616,,100392,2624054,KR,reference grade,east_asia,8578059
KR_23,"Korea, Republic of",???????????????????????,35.1055484,128.972983,Y,501,990,,35.1055484,128.972983,,100396,2623401,KR,reference grade,east_asia,8535450
KR_24,"Korea, Republic of",???????????????????????,36.006021,129.41491,Y,505,991,,36.006021,129.41491,,100397,2623813,KR,reference grade,east_asia,8535174
KR_25,"Korea, Republic of",???????????????????????,36.923449,127.75545,Y,509,986,,36.923449,127.75545,,100414,2623399,KR,reference grade,east_asia,8534563
KR_26,"Korea, Republic of",??????????????????????????,36.372411,127.373938,Y,506,985,,36.372411,127.373938,,100415,2623397,KR,reference grade,east_asia,8535759
KR_27,"Korea, Republic of",????????????????????????,35.761674,126.698103,Y,504,982,,35.761674,126.698103,,100416,2623395,KR,reference grade,east_asia,8536988
KR_28,"Korea, Republic of",???????¦?????????????,36.390845,126.569444,Y,507,982,,36.390845,126.569444,,100419,2623379,KR,reference grade,east_asia,8536670
KR_29,"Korea, Republic of",????????????????????,37.484357,127.598367,Y,511,985,,37.484357,127.598367,,100430,2623377,KR,reference grade,east_asia,8537309
KR_30,"Korea, Republic of",?????????????????????????,36.059713,127.08331,Y,505,984,,36.059713,127.08331,,100436,2623375,KR,reference grade,east_asia,8536436
KR_31,"Korea, Republic of",?????????????????????????????,38.0752566,128.6181141,Y,513,989,,38.0752566,128.6181141,,100441,2623373,KR,reference grade,east_asia,8536196
KR_32,"Korea, Republic of",???????????????????????,35.0619768,126.5225907,Y,501,982,,35.0619768,126.5225907,,100442,2623371,KR,reference grade,east_asia,8535979
KR_33,"Korea, Republic of",????????¦?????????,36.199272,127.086981,Y,506,984,,36.199272,127.086981,,100443,2623370,KR,reference grade,east_asia,8543645
KR_34,"Korea, Republic of",????????????????????????,37.3221,126.8305,Y,510,983,,37.3221,126.8305,,100444,2623368,KR,reference grade,east_asia,8536264
KR_35,"Korea, Republic of",????????????????????2????????,37.4051,126.9178,Y,511,983,,37.4051,126.9178,,100445,2623367,KR,reference grade,east_asia,8542830
KR_36,"Korea, Republic of",???????¦?????????????,35.310414,128.987347,Y,502,990,,35.310414,128.987347,,100446,2623365,KR,reference grade,east_asia,8536169
KR_37,"Korea, Republic of",?????????????????????????,35.0866322,128.8639,Y,501,989,,35.0866322,128.8639,,100447,2623363,KR,reference grade,east_asia,8534914
KR_38,"Korea, Republic of",???????????????????????,36.780177,126.455459,Y,508,982,,36.780177,126.455459,,100448,2623361,KR,reference grade,east_asia,8536787
KR_39,"Korea, Republic of",???????????????????,36.7738,127.053851,Y,508,984,,36.7738,127.053851,,100449,2623359,KR,reference grade,east_asia,8536180
KR_40,"Korea, Republic of",??????????????????????,36.8075573,127.789237,Y,508,986,,36.8075573,127.789237,,100450,2623357,KR,reference grade,east_asia,8536823
KR_41,"Korea, Republic of",???????????????????????,35.3077015,128.7311228,Y,502,989,,35.3077015,128.7311228,,100451,2623339,KR,reference grade,east_asia,8536482
KR_42,"Korea, Republic of",?????????????????,37.460709,126.631266,Y,511,982,,37.460709,126.631266,,100452,2623337,KR,reference grade,east_asia,8537222
KR_43,"Korea, Republic of",????????????????????8????????,37.384904,126.931247,Y,511,983,,37.384904,126.931247,,100453,2623336,KR,reference grade,east_asia,8543609
KR_44,"Korea, Republic of",???????????????????????????,36.3018429,127.4602048,Y,506,985,,36.3018429,127.4602048,,100454,2623333,KR,reference grade,east_asia,8536249
KR_45,"Korea, Republic of",?????????????????????,35.643167,127.9105,Y,504,986,,35.643167,127.9105,,100455,2623331,KR,reference grade,east_asia,8536172
KR_46,"Korea, Republic of",???????????????????????,35.2834576,127.2896401,Y,502,984,,35.2834576,127.2896401,,100456,2623329,KR,reference grade,east_asia,8534157
KR_47,"Korea, Republic of",??????????????????????????,36.275495,126.911297,Y,506,983,,36.275495,126.911297,,100457,2623327,KR,reference grade,east_asia,8535292
KR_48,"Korea, Republic of",???????????????????????,37.572025,127.005028,Y,511,983,,37.572025,127.005028,,100463,2623321,KR,reference grade,east_asia,8535022
KR_49,"Korea, Republic of",??????????????????????,37.566459,126.595122,Y,511,982,,37.566459,126.595122,,100464,2622556,KR,reference grade,east_asia,8541407
KR_50,"Korea, Republic of",??????????????????????,38.123833,127.25235,Y,513,984,,38.123833,127.25235,,100465,2622558,KR,reference grade,east_asia,8535703
KR_51,"Korea, Republic of",????????????????????????????,36.839225,127.137578,Y,508,984,,36.839225,127.137578,,100466,2622566,KR,reference grade,east_asia,8535262
KR_52,"Korea, Republic of",?????????????????????,36.736316,126.132168,Y,508,981,,36.736316,126.132168,,100467,2622567,KR,reference grade,east_asia,8535098
KR_53,"Korea, Republic of",?????????????????,36.994135,127.604512,Y,509,985,,36.994135,127.604512,,100468,2622569,KR,reference grade,east_asia,8537058
KR_54,"Korea, Republic of",????????????????????????,36.634423,127.447045,Y,508,985,,36.634423,127.447045,,100469,2622570,KR,reference grade,east_asia,8536372
KR_55,"Korea, Republic of",????????????????????,36.730926,127.804682,Y,508,986,,36.730926,127.804682,,100470,2622571,KR,reference grade,east_asia,8534805
KR_56,"Korea, Republic of",??????????????????????????,35.105555,128.925833,Y,501,990,,35.105555,128.925833,,100471,2623319,KR,reference grade,east_asia,8536304
KR_57,"Korea, Republic of",??????????????????????,36.526284,127.030853,Y,507,983,,36.526284,127.030853,,100472,2622573,KR,reference grade,east_asia,8535845
KR_58,"Korea, Republic of",??????????????????????,37.580167,127.044856,Y,511,984,,37.580167,127.044856,,100473,2622586,KR,reference grade,east_asia,8533919
KR_59,"Korea, Republic of",???????????????????????,35.412344,127.87597,Y,503,986,,35.412344,127.87597,,100474,2622587,KR,reference grade,east_asia,8537265
KR_60,"Korea, Republic of",?????????????????????,38.224433,127.958583,Y,514,986,,38.224433,127.958583,,100475,2622589,KR,reference grade,east_asia,8534132
KR_61,"Korea, Republic of",????????????????¦????????,36.304667,127.366717,Y,506,985,,36.304667,127.366717,,100476,2622590,KR,reference grade,east_asia,8533974
KR_62,"Korea, Republic of",?????????????¦????????,35.9972932,129.4057291,Y,505,991,,35.9972932,129.4057291,,100477,2622592,KR,reference grade,east_asia,8536818
KR_63,"Korea, Republic of",?????????????????????????,37.539109,127.214608,Y,511,984,,37.539109,127.214608,,100478,2622594,KR,reference grade,east_asia,8534922
KR_64,"Korea, Republic of",?????????????????????,35.6473136,127.5211775,Y,504,985,,35.6473136,127.5211775,,100479,2622596,KR,reference grade,east_asia,8533911
KR_65,"Korea, Republic of",??????????????????????????,35.184734,129.078112,Y,502,990,,35.184734,129.078112,,100480,2622598,KR,reference grade,east_asia,8537187
KR_66,"Korea, Republic of",?????????????????,37.4274,126.7461,Y,511,983,,37.4274,126.7461,,100481,2622600,KR,reference grade,east_asia,8537192
KR_67,"Korea, Republic of",?????????????????????????,35.243402,128.641756,Y,502,989,,35.243402,128.641756,,100482,2622602,KR,reference grade,east_asia,8536031
KR_68,"Korea, Republic of",???????????????????????,36.9973684,129.4027221,Y,509,991,,36.9973684,129.4027221,,100483,2622604,KR,reference grade,east_asia,8545915
KR_69,"Korea, Republic of",????????????????????????(???????????????¦),35.157742,126.810097,Y,502,983,,35.157742,126.810097,,100484,2622605,KR,reference grade,east_asia,8539876
KR_70,"Korea, Republic of",????????????????????,37.6356,127.2162,Y,512,984,,37.6356,127.2162,,100485,2622606,KR,reference grade,east_asia,8537554
KR_71,"Korea, Republic of",????????????????????????????????,37.516083,127.019694,Y,511,983,,37.516083,127.019694,,100486,2622608,KR,reference grade,east_asia,8537255
KR_72,"Korea, Republic of",????????????????(DMZ),38.129569,126.973711,Y,514,983,,38.129569,126.973711,,100487,2622623,KR,reference grade,east_asia,8537621
KR_73,"Korea, Republic of",??????????????????????,35.439481,127.529153,Y,503,985,,35.439481,127.529153,,100488,2622625,KR,reference grade,east_asia,8535393
KR_74,"Korea, Republic of",????????????????,37.5203,126.7737,Y,511,983,,37.5203,126.7737,,100489,2622627,KR,reference grade,east_asia,8535813
KR_75,"Korea, Republic of",????????????????????????,37.0898105,126.8152695,Y,509,983,,37.0898105,126.8152695,,100490,2622629,KR,reference grade,east_asia,8536579
KR_76,"Korea, Republic of",????????????????????????,33.51733013,126.5704561,Y,495,982,,33.51733013,126.5704561,,100491,2622631,KR,reference grade,east_asia,8534498
KR_77,"Korea, Republic of",???????¦??????????????,37.9613,127.3171,Y,513,984,,37.9613,127.3171,,100492,2622633,KR,reference grade,east_asia,8535610
KR_78,"Korea, Republic of",??????????????????????,37.3442,126.969,Y,510,983,,37.3442,126.969,,100493,2622635,KR,reference grade,east_asia,8537653
KR_79,"Korea, Republic of",??????????????????????,37.40508,126.63227,Y,511,982,,37.40508,126.63227,,100494,2623317,KR,reference grade,east_asia,8535412
KR_80,"Korea, Republic of",???????????????????????????????????????????,36.889977,126.645799,Y,509,982,,36.889977,126.645799,,100495,2622637,KR,reference grade,east_asia,8535957
KR_81,"Korea, Republic of",??????????????????????????,35.5211721,127.7244433,Y,503,986,,35.5211721,127.7244433,,100496,2623315,KR,reference grade,east_asia,8534586
KR_82,"Korea, Republic of",????????????????????,34.6062119,127.2805391,Y,499,984,,34.6062119,127.2805391,,100497,2622639,KR,reference grade,east_asia,8536778
KR_83,"Korea, Republic of",?????????????????????,35.127969,129.115711,Y,502,990,,35.127969,129.115711,,100498,2622641,KR,reference grade,east_asia,8540374
KR_84,"Korea, Republic of",??????????????????????,37.3125964,127.8171686,Y,510,986,,37.3125964,127.8171686,,100499,2622642,KR,reference grade,east_asia,8535015
KR_85,"Korea, Republic of",??????????????????????????,34.980817,127.583116,Y,501,985,,34.980817,127.583116,,100500,2622644,KR,reference grade,east_asia,8534936
KR_86,"Korea, Republic of",?????????????????????????,37.3715,127.5845,Y,510,985,,37.3715,127.5845,,100501,2622658,KR,reference grade,east_asia,8534316
KR_87,"Korea, Republic of",????????????????????????????(?????????????),37.298663,127.628936,Y,510,985,,37.298663,127.628936,,100502,2622660,KR,reference grade,east_asia,8534255
KR_88,"Korea, Republic of",??????????????????????,35.673703,127.270625,Y,504,984,,35.673703,127.270625,,100503,2622662,KR,reference grade,east_asia,8536682
KR_89,"Korea, Republic of",????????????¦????????,35.837879,128.488731,Y,504,988,,35.837879,128.488731,,100504,2622664,KR,reference grade,east_asia,8533889
KR_90,"Korea, Republic of",???????????????????????????1,37.4425401,129.168344,Y,511,990,,37.4425401,129.168344,,100505,2622666,KR,reference grade,east_asia,8536515
KR_91,"Korea, Republic of",???????????????????????,36.383964,128.440179,Y,507,988,,36.383964,128.440179,,100506,2622668,KR,reference grade,east_asia,8537137
KR_92,"Korea, Republic of",???????????????????????,34.565366,126.599224,Y,499,982,,34.565366,126.599224,,100507,2622670,KR,reference grade,east_asia,8537285
KR_93,"Korea, Republic of",???????????????????????,35.21815,128.57425,Y,502,988,,35.21815,128.57425,,100508,2622686,KR,reference grade,east_asia,8539597
KR_94,"Korea, Republic of",???????????????????,37.543224,126.737849,Y,511,983,,37.543224,126.737849,,100509,2622687,KR,reference grade,east_asia,8535547
KR_95,"Korea, Republic of",????????????????????????,34.97454361,128.3243698,Y,501,988,,34.97454361,128.3243698,,100510,2623314,KR,reference grade,east_asia,8534007
KR_96,"Korea, Republic of",?????????????????????????,37.657415,127.067876,Y,512,984,,37.657415,127.067876,,100511,2622689,KR,reference grade,east_asia,8535152
KR_97,"Korea, Republic of",?????????????? ????????????????,37.443333,126.602777,Y,511,982,,37.443333,126.602777,,100512,2622692,KR,reference grade,east_asia,8537616
KR_98,"Korea, Republic of",??????????????????????,35.49325,129.305696,Y,503,991,,35.49325,129.305696,,100513,2623312,KR,reference grade,east_asia,8533906
KR_99,"Korea, Republic of",?????????????????????????,35.867398,127.117517,Y,504,984,,35.867398,127.117517,,100514,2622695,KR,reference grade,east_asia,8535422
KR_100,"Korea, Republic of",?????????????????????????,35.797189,127.434893,Y,504,985,,35.797189,127.434893,,100515,2622698,KR,reference grade,east_asia,8545932
KR_101,"Korea, Republic of",?????????????????????,37.304889,126.833521,Y,510,983,,37.304889,126.833521,,100516,2622700,KR,reference grade,east_asia,8541079
KR_102,"Korea, Republic of",????????????????????,34.8419256,127.3477777,Y,500,985,,34.8419256,127.3477777,,100517,2623310,KR,reference grade,east_asia,8536813
KR_103,"Korea, Republic of",??????????????????????????,35.912903,128.813758,Y,505,989,,35.912903,128.813758,,100518,2622701,KR,reference grade,east_asia,8535265
KR_104,"Korea, Republic of",??????????????????,37.382084,126.654663,Y,511,982,,37.382084,126.654663,,100519,2622703,KR,reference grade,east_asia,8534052
KR_105,"Korea, Republic of",???????????????????????,34.9903577,126.4762299,Y,501,982,,34.9903577,126.4762299,,100520,2622704,KR,reference grade,east_asia,8534991
KR_106,"Korea, Republic of",?????????????????,37.5941,126.6986,Y,511,982,,37.5941,126.6986,,100521,2622718,KR,reference grade,east_asia,8536519
KR_107,"Korea, Republic of",????????????????????????????(?????????????????),37.3528063,127.9475408,Y,510,986,,37.3528063,127.9475408,,100522,2622720,KR,reference grade,east_asia,8536795
KR_108,"Korea, Republic of",????????????????????????,35.973333,126.651417,Y,505,982,,35.973333,126.651417,,100523,2622722,KR,reference grade,east_asia,8537064
KR_109,"Korea, Republic of",?????????????????????????????????(????????????????????????),37.4339,127.1293,Y,511,984,,37.4339,127.1293,,100524,2622724,KR,reference grade,east_asia,8534286
KR_110,"Korea, Republic of",???????????????????????????????,37.526339,126.896256,Y,511,983,,37.526339,126.896256,,100525,2622727,KR,reference grade,east_asia,8534048
KR_111,"Korea, Republic of",?????????????????????????,35.864922,128.457164,Y,504,988,,35.864922,128.457164,,100526,2622729,KR,reference grade,east_asia,8535873
KR_112,"Korea, Republic of",??????????????????????????,36.814171,127.152144,Y,508,984,,36.814171,127.152144,,100527,2622731,KR,reference grade,east_asia,8534135
KR_113,"Korea, Republic of",??????????????????????????,35.911047,128.599759,Y,505,989,,35.911047,128.599759,,100528,2622733,KR,reference grade,east_asia,8534966
KR_114,"Korea, Republic of",?????????????????????,35.72812,127.587812,Y,504,985,,35.72812,127.587812,,100529,2622735,KR,reference grade,east_asia,8536928
KR_115,"Korea, Republic of",???????????????????????,34.88053905,128.6211295,Y,501,989,,34.88053905,128.6211295,,100530,2622737,KR,reference grade,east_asia,8535323
KR_116,"Korea, Republic of",???????????????????????,36.68121,127.19634,Y,508,984,,36.68121,127.19634,,100531,2622740,KR,reference grade,east_asia,8536091
KR_117,"Korea, Republic of",????????????????????,37.0334,128.2957,Y,509,988,,37.0334,128.2957,,100532,2622742,KR,reference grade,east_asia,8535752
KR_118,"Korea, Republic of",????????????????????????,37.4112,127.2579,Y,511,984,,37.4112,127.2579,,100533,2622744,KR,reference grade,east_asia,8535935
KR_119,"Korea, Republic of",???????????????????????,35.127142,129.046701,Y,502,990,,35.127142,129.046701,,100534,2623308,KR,reference grade,east_asia,8535953
KR_120,"Korea, Republic of",3???????????????,35.963042,129.376848,Y,505,991,,35.963042,129.376848,,100535,2622758,KR,reference grade,east_asia,8536536
KR_121,"Korea, Republic of",?????????????¦,37.537745,126.63879,Y,511,982,,37.537745,126.63879,,100536,2622760,KR,reference grade,east_asia,8537374
KR_122,"Korea, Republic of",????????????????????????,35.816726,128.528732,Y,504,988,,35.816726,128.528732,,100537,2622761,KR,reference grade,east_asia,8534478
KR_123,"Korea, Republic of",?????????¦?????????????????,35.544442,129.331878,Y,503,991,,35.544442,129.331878,,100538,2622764,KR,reference grade,east_asia,8534674
KR_124,"Korea, Republic of",????????????????????????????,33.4646731,126.3315087,Y,495,981,,33.4646731,126.3315087,,100539,2622768,KR,reference grade,east_asia,8536226
KR_125,"Korea, Republic of",????????????????,37.494835,126.563919,Y,511,982,,37.494835,126.563919,,100540,2622770,KR,reference grade,east_asia,8537290
KR_126,"Korea, Republic of",????????????????????????????????,37.576169,127.029642,Y,511,983,,37.576169,127.029642,,100541,2622782,KR,reference grade,east_asia,8537190
KR_127,"Korea, Republic of",?????????????????(DMZ),38.290859,127.179801,Y,514,984,,38.290859,127.179801,,100542,2622784,KR,reference grade,east_asia,8534567
KR_128,"Korea, Republic of",??????????????????????????,37.8753695,127.7202223,Y,513,986,,37.8753695,127.7202223,,100543,2622786,KR,reference grade,east_asia,8547469
KR_129,"Korea, Republic of",?????????????????????????,36.597702,126.655133,Y,507,982,,36.597702,126.655133,,100544,2622787,KR,reference grade,east_asia,8535479
KR_130,"Korea, Republic of",??????????????????????,35.438094,126.71279,Y,503,982,,35.438094,126.71279,,100545,2622788,KR,reference grade,east_asia,8535024
KR_131,"Korea, Republic of",??????????????????????????????????,37.735582,127.040421,Y,512,984,,37.735582,127.040421,,100546,2622791,KR,reference grade,east_asia,8534952
KR_132,"Korea, Republic of",????????????????????????,37.390588,127.077838,Y,511,984,,37.390588,127.077838,,100547,2622793,KR,reference grade,east_asia,8534995
KR_133,"Korea, Republic of",???????????????????????,36.635997,127.504028,Y,508,985,,36.635997,127.504028,,100548,2622795,KR,reference grade,east_asia,8547466
KR_134,"Korea, Republic of",??????????????????????,37.64793,127.011952,Y,512,983,,37.64793,127.011952,,100549,2622796,KR,reference grade,east_asia,8537436
KR_135,"Korea, Republic of",????????????????????????????,37.488242,126.927089,Y,511,983,,37.488242,126.927089,,100550,2622798,KR,reference grade,east_asia,8534617
KR_136,"Korea, Republic of",??????????????????????,34.965927,127.794191,Y,501,986,,34.965927,127.794191,,100551,2622800,KR,reference grade,east_asia,8534581
KR_137,"Korea, Republic of",???????????????????????????,35.62088,129.35796,Y,503,991,,35.62088,129.35796,,100552,2622802,KR,reference grade,east_asia,8536748
KR_138,"Korea, Republic of",??????????????????????,36.869739,126.280761,Y,508,981,,36.869739,126.280761,,100553,2622805,KR,reference grade,east_asia,8544290
KR_139,"Korea, Republic of",???????????????????????????,35.1743,126.9325,Y,502,983,,35.1743,126.9325,,100554,2622806,KR,reference grade,east_asia,8534590
KR_140,"Korea, Republic of",????????????????????????,35.56964,129.22602,Y,503,991,,35.56964,129.22602,,100555,2622821,KR,reference grade,east_asia,8533901
KR_141,"Korea, Republic of",??????????????????????,35.5509,129.260827,Y,503,991,,35.5509,129.260827,,100556,2622823,KR,reference grade,east_asia,8537037
KR_142,"Korea, Republic of",????????????????????????????,37.6251,126.8423,Y,512,983,,37.6251,126.8423,,100557,2622825,KR,reference grade,east_asia,8534588
KR_143,"Korea, Republic of",????????????????????????,37.652924,127.11586,Y,512,984,,37.652924,127.11586,,100558,2622827,KR,reference grade,east_asia,8534271
KR_144,"Korea, Republic of",???????????????????????????,35.2178,128.6023,Y,502,989,,35.2178,128.6023,,100559,2622829,KR,reference grade,east_asia,8537602
KR_145,"Korea, Republic of",???????????????????????,35.202364,128.807221,Y,502,989,,35.202364,128.807221,,100560,2622831,KR,reference grade,east_asia,8534865
KR_146,"Korea, Republic of",???????????????????????,36.10605,128.4187,Y,505,988,,36.10605,128.4187,,100561,2622833,KR,reference grade,east_asia,8533913
KR_147,"Korea, Republic of",??????????????????????????,33.2277489,126.2473589,Y,494,981,,33.2277489,126.2473589,,100562,2622835,KR,reference grade,east_asia,8536720
KR_148,"Korea, Republic of",?????????????????,37.564639,126.975961,Y,511,983,,37.564639,126.975961,,100563,2622837,KR,reference grade,east_asia,8534251
KR_149,"Korea, Republic of",?????????????????????????,36.839,126.46087,Y,508,982,,36.839,126.46087,,100564,2622838,KR,reference grade,east_asia,8533943
KR_150,"Korea, Republic of",???????????????????????????,35.114404,129.017251,Y,501,990,,35.114404,129.017251,,100565,2622841,KR,reference grade,east_asia,8534564
KR_151,"Korea, Republic of",????????????????????????,35.859,128.55183,Y,504,988,,35.859,128.55183,,100566,2623305,KR,reference grade,east_asia,8536447
KR_152,"Korea, Republic of",????????????????????????,36.6313584,127.3294723,Y,508,984,,36.6313584,127.3294723,,100567,2622844,KR,reference grade,east_asia,8541624
KR_153,"Korea, Republic of",????????????????????????,35.846502,127.062725,Y,504,984,,35.846502,127.062725,,100568,2622845,KR,reference grade,east_asia,8534988
KR_154,"Korea, Republic of",??????????????????????????1????????,37.746355,127.047652,Y,512,984,,37.746355,127.047652,,100569,2622860,KR,reference grade,east_asia,8535757
KR_155,"Korea, Republic of",????????????????????,37.459,128.063,Y,511,987,,37.459,128.063,,100570,2622863,KR,reference grade,east_asia,8536209
KR_156,"Korea, Republic of",??????????????????????,37.0485072,129.065288,Y,509,990,,37.0485072,129.065288,,100571,2622866,KR,reference grade,east_asia,8534463
KR_157,"Korea, Republic of",???????????????????????,35.2297487,129.09266,Y,502,990,,35.2297487,129.09266,,100572,2622868,KR,reference grade,east_asia,8537444
KR_158,"Korea, Republic of",???????????????????????,36.234746,128.57628,Y,506,988,,36.234746,128.57628,,100573,2622871,KR,reference grade,east_asia,8536839
KR_159,"Korea, Republic of",????????????????????????????,35.64988,128.70616,Y,504,989,,35.64988,128.70616,,100574,2622873,KR,reference grade,east_asia,8535631
KR_160,"Korea, Republic of",??????????????????????????,36.608818,127.501293,Y,507,985,,36.608818,127.501293,,100575,2622875,KR,reference grade,east_asia,8535583
KR_161,"Korea, Republic of",?????????????¦????????,35.08298,128.9667622,Y,501,990,,35.08298,128.9667622,,100576,2622889,KR,reference grade,east_asia,8537177
KR_162,"Korea, Republic of",?????????????????????,37.26894,126.93609,Y,510,983,,37.26894,126.93609,,100577,2622891,KR,reference grade,east_asia,8536508
KR_163,"Korea, Republic of",???????????????????,34.9363617,127.5485334,Y,501,985,,34.9363617,127.5485334,,100578,2622893,KR,reference grade,east_asia,8536727
KR_164,"Korea, Republic of",??????????????????????????,35.183108,128.560665,Y,502,988,,35.183108,128.560665,,100579,2622895,KR,reference grade,east_asia,8534008
KR_165,"Korea, Republic of",??????????????????????????,35.233361,129.007694,Y,502,990,,35.233361,129.007694,,100580,2622897,KR,reference grade,east_asia,8535133
KR_166,"Korea, Republic of",????????????????????????,36.636989,127.461759,Y,508,985,,36.636989,127.461759,,100581,2622899,KR,reference grade,east_asia,8537294
KR_167,"Korea, Republic of",?????????????????????????,35.154972,128.689578,Y,502,989,,35.154972,128.689578,,100582,2622901,KR,reference grade,east_asia,8537360
KR_168,"Korea, Republic of",??????????????????????????,37.2837,127.441,Y,510,985,,37.2837,127.441,,100583,2622903,KR,reference grade,east_asia,8534225
KR_169,"Korea, Republic of",??????????????????¦????????,34.863611,128.690278,Y,500,989,,34.863611,128.690278,,100584,2622905,KR,reference grade,east_asia,8534665
KR_170,"Korea, Republic of",?????????????????????????,37.480989,126.971547,Y,511,983,,37.480989,126.971547,,100585,2622907,KR,reference grade,east_asia,8536653
KR_171,"Korea, Republic of",???????????????3????????,37.320048,126.948907,Y,510,983,,37.320048,126.948907,,100586,2622908,KR,reference grade,east_asia,8544244
KR_172,"Korea, Republic of",??????????????????????????,33.2508702,126.489923,Y,494,982,,33.2508702,126.489923,,100587,2622909,KR,reference grade,east_asia,8537649
KR_173,"Korea, Republic of",??????????????????????,36.363249,129.389769,Y,506,991,,36.363249,129.389769,,100588,2622912,KR,reference grade,east_asia,8533920
KR_174,"Korea, Republic of",?????????????????????????,37.166203,126.708965,Y,510,982,,37.166203,126.708965,,100589,2622929,KR,reference grade,east_asia,8539577
KR_175,"Korea, Republic of",???????????????¦????????,35.493678,128.754168,Y,503,989,,35.493678,128.754168,,100590,2623303,KR,reference grade,east_asia,8536315
KR_176,"Korea, Republic of",??????????????????????,34.754549,127.70276,Y,500,986,,34.754549,127.70276,,100591,2622931,KR,reference grade,east_asia,8541568
KR_177,"Korea, Republic of",?????????????????????????,37.5278,126.7967,Y,511,983,,37.5278,126.7967,,100592,2622932,KR,reference grade,east_asia,8536574
KR_178,"Korea, Republic of",????????????????????????,35.88761,128.58434,Y,505,988,,35.88761,128.58434,,100593,2622934,KR,reference grade,east_asia,8535508
KR_179,"Korea, Republic of",?????????????????????,36.824238,126.25722,Y,508,981,,36.824238,126.25722,,100594,2622936,KR,reference grade,east_asia,8534747
KR_180,"Korea, Republic of",????????????????????,35.1552633,129.0225679,Y,502,990,,35.1552633,129.0225679,,100595,2622938,KR,reference grade,east_asia,8534300
KR_181,"Korea, Republic of",?????????????????????,36.1097343,126.9915668,Y,505,983,,36.1097343,126.9915668,,100596,2622942,KR,reference grade,east_asia,8541621
KR_182,"Korea, Republic of",?????????????????,37.831217,127.509769,Y,512,985,,37.831217,127.509769,,100597,2622943,KR,reference grade,east_asia,8539491
KR_183,"Korea, Republic of",?????????????????????,33.539831,126.64412,Y,495,982,,33.539831,126.64412,,100598,2622944,KR,reference grade,east_asia,8534881
KR_184,"Korea, Republic of",??????????????????,35.985621,127.047468,Y,505,984,,35.985621,127.047468,,100599,2622946,KR,reference grade,east_asia,8535139
KR_185,"Korea, Republic of",???????????????????????,36.446944,127.404722,Y,507,985,,36.446944,127.404722,,100600,2622948,KR,reference grade,east_asia,8537617
KR_186,"Korea, Republic of",????????????????????????????,37.56865,126.998083,Y,511,983,,37.56865,126.998083,,100601,2622950,KR,reference grade,east_asia,8536651
KR_187,"Korea, Republic of",?????????????????????????,35.968522,129.359954,Y,505,991,,35.968522,129.359954,,100602,2622966,KR,reference grade,east_asia,8535049
KR_188,"Korea, Republic of",???????¦???????????????????????,37.89361111,128.8227778,Y,513,989,,37.89361111,128.8227778,,100603,2622968,KR,reference grade,east_asia,8536232
KR_189,"Korea, Republic of",?????????????????????????(?????????????????),34.766301,127.657507,Y,500,986,,34.766301,127.657507,,100604,2622970,KR,reference grade,east_asia,8534652
KR_190,"Korea, Republic of",??????????????????????????,35.182668,129.118136,Y,502,990,,35.182668,129.118136,,100605,2622972,KR,reference grade,east_asia,8535473
KR_191,"Korea, Republic of",??????????????????????????,37.211479,126.824001,Y,510,983,,37.211479,126.824001,,100606,2622975,KR,reference grade,east_asia,8537261
KR_192,"Korea, Republic of",????????????????????????,35.974693,126.58676,Y,505,982,,35.974693,126.58676,,100607,2622977,KR,reference grade,east_asia,8537301
KR_193,"Korea, Republic of",?????????????????????????,36.937966,126.43394,Y,509,982,,36.937966,126.43394,,100608,2622979,KR,reference grade,east_asia,8537063
KR_194,"Korea, Republic of",??????????????????????????,35.129493,129.086128,Y,502,990,,35.129493,129.086128,,100609,2622981,KR,reference grade,east_asia,8533933
KR_195,"Korea, Republic of",??????????????????????,36.713311,127.420517,Y,508,985,,36.713311,127.420517,,100610,2622983,KR,reference grade,east_asia,8537234
KR_197,"Korea, Republic of",???????????????????????,37.79239,126.987168,Y,512,983,,37.79239,126.987168,,100612,2622987,KR,reference grade,east_asia,8534245
KR_198,"Korea, Republic of",??????????????????????????,35.533314,129.301215,Y,503,991,,35.533314,129.301215,,100613,2622990,KR,reference grade,east_asia,8537302
KR_199,"Korea, Republic of",????????????????????,34.881925,127.578783,Y,501,985,,34.881925,127.578783,,100614,2622991,KR,reference grade,east_asia,8535276
KR_200,"Korea, Republic of",?????????¦???????????????,35.182831,128.976359,Y,502,990,,35.182831,128.976359,,100615,2622993,KR,reference grade,east_asia,8535835
KR_201,"Korea, Republic of",???????????????????????,35.161944,126.844167,Y,502,983,,35.161944,126.844167,,100616,2623008,KR,reference grade,east_asia,8537283
KR_202,"Korea, Republic of",???????????????????????,36.316111,127.437778,Y,506,985,,36.316111,127.437778,,100617,2623011,KR,reference grade,east_asia,8539392
KR_203,"Korea, Republic of",?????????????????????????,35.154292,128.979342,Y,502,990,,35.154292,128.979342,,100618,2623012,KR,reference grade,east_asia,8536792
KR_204,"Korea, Republic of",??????????????,37.7919,127.0847,Y,512,984,,37.7919,127.0847,,100619,2623014,KR,reference grade,east_asia,8537513
KR_205,"Korea, Republic of",????????????????????????????,35.534671,129.307806,Y,503,991,,35.534671,129.307806,,100620,2623016,KR,reference grade,east_asia,8537413
KR_206,"Korea, Republic of",?????????????????????????,35.1556258,129.063259,Y,502,990,,35.1556258,129.063259,,100621,2623018,KR,reference grade,east_asia,8536938
KR_207,"Korea, Republic of",??????????????????????????,37.1626445,128.9867779,Y,510,990,,37.1626445,128.9867779,,100622,2623020,KR,reference grade,east_asia,8537643
KR_208,"Korea, Republic of",???????????????????????,37.05311,127.046172,Y,509,984,,37.05311,127.046172,,100623,2623034,KR,reference grade,east_asia,8536439
KR_209,"Korea, Republic of",???????¦???????????????????,35.131917,126.8933,Y,502,983,,35.131917,126.8933,,100624,2623036,KR,reference grade,east_asia,8536312
KR_210,"Korea, Republic of",????????????????????????,37.081564,127.060117,Y,509,984,,37.081564,127.060117,,100625,2623037,KR,reference grade,east_asia,8534078
KR_211,"Korea, Republic of",?????????????????????,37,128.1675,Y,509,987,,37,128.1675,,100626,2623040,KR,reference grade,east_asia,8533936
KR_212,"Korea, Republic of",??????????????????????,36.784325,127.099992,Y,508,984,,36.784325,127.099992,,100627,2623042,KR,reference grade,east_asia,8535260
KR_213,"Korea, Republic of",???????????????????????,33.500116,126.532371,Y,495,982,,33.500116,126.532371,,100628,2623044,KR,reference grade,east_asia,8536677
KR_214,"Korea, Republic of",?????????????????????????,35.5452909,128.4883674,Y,503,988,,35.5452909,128.4883674,,100629,2623046,KR,reference grade,east_asia,8534812
KR_215,"Korea, Republic of",?????????????????????,37.452386,126.908333,Y,511,983,,37.452386,126.908333,,100630,2623048,KR,reference grade,east_asia,8534777
KR_216,"Korea, Republic of",?????????????????1????????,35.85833333,128.5897222,Y,504,988,,35.85833333,128.5897222,,100631,2623050,KR,reference grade,east_asia,8533887
KR_217,"Korea, Republic of",??????????????????????????,37.6104714,126.9335038,Y,511,983,,37.6104714,126.9335038,,100632,2623052,KR,reference grade,east_asia,8534887
KR_218,"Korea, Republic of",????????????????????(??????????????????????),37.335732,127.976971,Y,510,987,,37.335732,127.976971,,100633,2623053,KR,reference grade,east_asia,8535560
KR_219,"Korea, Republic of",??????????????????????????(????????????????),35.97285,126.700733,Y,505,982,,35.97285,126.700733,,100634,2623054,KR,reference grade,east_asia,8536040
KR_220,"Korea, Republic of",?????????????????????????,35.152309,129.108101,Y,502,990,,35.152309,129.108101,,100635,2623058,KR,reference grade,east_asia,8536969
KR_221,"Korea, Republic of",?????????????¦,37.906227,126.73108,Y,513,983,,37.906227,126.73108,,100636,2623075,KR,reference grade,east_asia,8542858
KR_222,"Korea, Republic of",???????????????????????,37.1965,127.1194,Y,510,984,,37.1965,127.1194,,100637,2623076,KR,reference grade,east_asia,8536105
KR_223,"Korea, Republic of",???????????????????????????,37.666362,126.886708,Y,512,983,,37.666362,126.886708,,100638,2623078,KR,reference grade,east_asia,8535769
KR_224,"Korea, Republic of",????????????????????????,37.532057,127.002371,Y,511,983,,37.532057,127.002371,,100639,2623080,KR,reference grade,east_asia,8534744
KR_225,"Korea, Republic of",??????????????????????,37.649034,126.675064,Y,512,982,,37.649034,126.675064,,100640,2623082,KR,reference grade,east_asia,8535108
KR_226,"Korea, Republic of",??????????????????????,36.172773,127.777839,Y,506,986,,36.172773,127.777839,,100641,2623084,KR,reference grade,east_asia,8535102
KR_227,"Korea, Republic of",?????????????????????????,35.43445,129.30651,Y,503,991,,35.43445,129.30651,,100642,2623088,KR,reference grade,east_asia,8539194
KR_228,"Korea, Republic of",???????????????????????,35.9729798,128.9376783,Y,505,990,,35.9729798,128.9376783,,100643,2623089,KR,reference grade,east_asia,8536604
KR_229,"Korea, Republic of",???????????????????????,35.066944,127.751389,Y,501,986,,35.066944,127.751389,,100644,2623090,KR,reference grade,east_asia,8534699
KR_230,"Korea, Republic of",????????????????????,34.6743623,126.9065322,Y,500,983,,34.6743623,126.9065322,,100645,2623093,KR,reference grade,east_asia,8537648
KR_231,"Korea, Republic of",????????????????????????,36.429289,129.056178,Y,507,990,,36.429289,129.056178,,100646,2623095,KR,reference grade,east_asia,8534684
KR_232,"Korea, Republic of",?????????????????????????,36.1439851,128.1370361,Y,506,987,,36.1439851,128.1370361,,100647,2623097,KR,reference grade,east_asia,8535428
KR_233,"Korea, Republic of",???????????????????????????????????????????,37.6532578,126.6292725,Y,512,982,,37.6532578,126.6292725,,100648,2623100,KR,reference grade,east_asia,8537132
KR_234,"Korea, Republic of",????????????????????????,37.654278,127.029333,Y,512,983,,37.654278,127.029333,,100649,2623112,KR,reference grade,east_asia,8537218
KR_235,"Korea, Republic of",???????????????????????,36.790498,126.785915,Y,508,983,,36.790498,126.785915,,100650,2623301,KR,reference grade,east_asia,8535848
KR_236,"Korea, Republic of",???????????????¦????????,37.394327,126.956859,Y,511,983,,37.394327,126.956859,,100651,2623115,KR,reference grade,east_asia,8541587
KR_237,"Korea, Republic of",????????????????????????,37.502685,127.092385,Y,511,984,,37.502685,127.092385,,100652,2623116,KR,reference grade,east_asia,8535634
KR_238,"Korea, Republic of",????????????????????????,36.688131,126.739314,Y,508,983,,36.688131,126.739314,,100653,2623287,KR,reference grade,east_asia,8534594
KR_239,"Korea, Republic of",??????????????????????????,37.283798,127.010472,Y,510,983,,37.283798,127.010472,,100654,2623119,KR,reference grade,east_asia,8541294
KR_240,"Korea, Republic of",??????????????????????????????????,37.010228,127.81517,Y,509,986,,37.010228,127.81517,,100655,2623120,KR,reference grade,east_asia,8537258
KR_241,"Korea, Republic of",???????????????????3????????,37.7481,127.106,Y,512,984,,37.7481,127.106,,100656,2623134,KR,reference grade,east_asia,8534411
KR_242,"Korea, Republic of",???????????????????????,36.484771,127.729903,Y,507,986,,36.484771,127.729903,,100657,2623136,KR,reference grade,east_asia,8536635
KR_243,"Korea, Republic of",???????????????????????,36.58667,128.18591,Y,507,987,,36.58667,128.18591,,100658,2623138,KR,reference grade,east_asia,8534939
KR_244,"Korea, Republic of",??????????????????????,35.22933,126.86186,Y,502,983,,35.22933,126.86186,,100659,2623285,KR,reference grade,east_asia,8533918
KR_245,"Korea, Republic of",?????????????????????????,35.860351,127.654429,Y,504,985,,35.860351,127.654429,,100660,2623141,KR,reference grade,east_asia,8542074
KR_246,"Korea, Republic of",?????????????????????????,37.007863,127.279856,Y,509,984,,37.007863,127.279856,,100661,2623142,KR,reference grade,east_asia,8536121
KR_247,"Korea, Republic of",?????????????????????,35.274045,129.090793,Y,502,990,,35.274045,129.090793,,100662,2623143,KR,reference grade,east_asia,8536208
KR_248,"Korea, Republic of",???????????????????????,35.869104,128.711016,Y,504,989,,35.869104,128.711016,,100663,2623146,KR,reference grade,east_asia,8535305
KR_249,"Korea, Republic of",????????????????????????????????,35.227745,128.901042,Y,502,989,,35.227745,128.901042,,100664,2623148,KR,reference grade,east_asia,8534206
KR_250,"Korea, Republic of",?????????????,37.255942,126.483536,Y,510,982,,37.255942,126.483536,,100665,2623150,KR,reference grade,east_asia,8536210
KR_251,"Korea, Republic of",???????????????????????,36.105052,128.384038,Y,505,988,,36.105052,128.384038,,100666,2623152,KR,reference grade,east_asia,8537487
KR_252,"Korea, Republic of",?????????????????????????????,37.539283,127.040943,Y,511,984,,37.539283,127.040943,,100667,2623154,KR,reference grade,east_asia,8536181
KR_253,"Korea, Republic of",????????????????????????,35.7156428,129.3234158,Y,504,991,,35.7156428,129.3234158,,100668,2623283,KR,reference grade,east_asia,8537516
KR_254,"Korea, Republic of",?????????¦?????????,37.51279,126.73643,Y,511,983,,37.51279,126.73643,,100669,2623170,KR,reference grade,east_asia,8537061
KR_255,"Korea, Republic of",?????????????????????,35.980182,129.374795,Y,505,991,,35.980182,129.374795,,100670,2623281,KR,reference grade,east_asia,8536596
KR_256,"Korea, Republic of",?????????????????????????????????(?????????????????),37.5056,126.759,Y,511,983,,37.5056,126.759,,100671,2623173,KR,reference grade,east_asia,8541553
KR_257,"Korea, Republic of",???????????????????????,36.82066,128.61209,Y,508,989,,36.82066,128.61209,,100672,2623174,KR,reference grade,east_asia,8534380
KR_258,"Korea, Republic of",???????????????????????,37.7151,126.5526,Y,512,982,,37.7151,126.5526,,100673,2623176,KR,reference grade,east_asia,8534685
KR_259,"Korea, Republic of",??????????????????????,37.488209,130.9040474,Y,511,996,,37.488209,130.9040474,,100674,2623178,KR,reference grade,east_asia,8534708
KR_260,"Korea, Republic of",??????????????,35.83433,128.541083,Y,504,988,,35.83433,128.541083,,100675,2623180,KR,reference grade,east_asia,8534921
KR_261,"Korea, Republic of",?????????????????(DMZ),38.247827,127.79066,Y,514,986,,38.247827,127.79066,,100676,2623182,KR,reference grade,east_asia,8534147
KR_262,"Korea, Republic of",?????????????????????????????,37.1146,127.6297,Y,509,985,,37.1146,127.6297,,100677,2623184,KR,reference grade,east_asia,8534929
KR_263,"Korea, Republic of",???????¦?????????,37.455474,126.692888,Y,511,982,,37.455474,126.692888,,100678,2623186,KR,reference grade,east_asia,8534828
KR_264,"Korea, Republic of",??????????????????????,37.6837538,127.8800359,Y,512,986,,37.6837538,127.8800359,,100679,2623188,KR,reference grade,east_asia,8537310
KR_265,"Korea, Republic of",??????????????????????????,38.1092365,127.9894679,Y,513,987,,38.1092365,127.9894679,,100680,2623279,KR,reference grade,east_asia,8537147
KR_266,"Korea, Republic of",????????????????????????,37.606667,127.027264,Y,511,983,,37.606667,127.027264,,100681,2623191,KR,reference grade,east_asia,8538350
KR_267,"Korea, Republic of",????????????????????????????????,37.354651,126.709878,Y,510,982,,37.354651,126.709878,,100682,2623204,KR,reference grade,east_asia,8535868
KR_268,"Korea, Republic of",????????????????????????(????????????????¦),35.180609,128.121781,Y,502,987,,35.180609,128.121781,,100683,2623206,KR,reference grade,east_asia,8534700
KR_269,"Korea, Republic of",??????????????????????????,35.556277,129.320451,Y,503,991,,35.556277,129.320451,,100684,2623210,KR,reference grade,east_asia,8536390
KR_270,"Korea, Republic of",??????????????????????,35.3744761,127.1373331,Y,502,984,,35.3744761,127.1373331,,100685,2623278,KR,reference grade,east_asia,8536282
KR_271,"Korea, Republic of",???????????????????????,37.917603,127.061291,Y,513,984,,37.917603,127.061291,,100686,2623213,KR,reference grade,east_asia,8539510
KR_272,"Korea, Republic of",???????????????????(???????????????????????),37.6545086,126.7755571,Y,512,983,,37.6545086,126.7755571,,100687,2623214,KR,reference grade,east_asia,8535259
KR_273,"Korea, Republic of",??????????????????,37.764444,126.463333,Y,512,982,,37.764444,126.463333,,100688,2623216,KR,reference grade,east_asia,8537348
KR_274,"Korea, Republic of",?????????????????????????,35.869596,127.074632,Y,504,984,,35.869596,127.074632,,100689,2623218,KR,reference grade,east_asia,8535009
KR_275,"Korea, Republic of",?????????????????????,35.560301,129.370866,Y,503,991,,35.560301,129.370866,,100690,2623220,KR,reference grade,east_asia,8539483
KR_276,"Korea, Republic of",???????????????????????????????????????????,36.120551,128.116213,Y,505,987,,36.120551,128.116213,,100691,2623221,KR,reference grade,east_asia,8537223
KR_277,"Korea, Republic of",???????????????????????(????????????????),36.3692,128.456533,Y,506,988,,36.3692,128.456533,,100692,2623223,KR,reference grade,east_asia,8539325
KR_278,"Korea, Republic of",?????????????????????,35.865276,128.640031,Y,504,989,,35.865276,128.640031,,100693,2623225,KR,reference grade,east_asia,8535086
KR_279,"Korea, Republic of",???????????????????????,35.839594,128.682225,Y,504,989,,35.839594,128.682225,,100694,2623227,KR,reference grade,east_asia,8537569
KR_280,"Korea, Republic of",?????????¦??????????????,35.243889,128.912222,Y,502,990,,35.243889,128.912222,,100695,2623239,KR,reference grade,east_asia,8536353
KR_281,"Korea, Republic of",???????????????????????????,35.217333,128.656617,Y,502,989,,35.217333,128.656617,,100696,2623240,KR,reference grade,east_asia,8536986
KR_282,"Korea, Republic of",?????????????????????????,35.845498,128.571066,Y,504,988,,35.845498,128.571066,,100697,2623243,KR,reference grade,east_asia,8536509
KR_283,"Korea, Republic of",????????????????????????,36.35266,128.69676,Y,506,989,,36.35266,128.69676,,100698,2623245,KR,reference grade,east_asia,8535693
KR_284,"Korea, Republic of",??????????????????????????,34.978355,127.758004,Y,501,986,,34.978355,127.758004,,100699,2623247,KR,reference grade,east_asia,8534426
KR_285,"Korea, Republic of",???????????????????????????,36.51212,127.24643,Y,507,984,,36.51212,127.24643,,100700,2623249,KR,reference grade,east_asia,8535676
KR_286,"Korea, Republic of",???????????????????????,34.80593,126.391767,Y,500,981,,34.80593,126.391767,,100701,2623251,KR,reference grade,east_asia,8534849
KR_287,"Korea, Republic of",????????????????????????????????,35.122677,129.055411,Y,501,990,,35.122677,129.055411,,100702,2623253,KR,reference grade,east_asia,8536729
KR_288,"Korea, Republic of",?????????????????????,37.329538,127.242271,Y,510,984,,37.329538,127.242271,,100703,2623257,KR,reference grade,east_asia,8534046
KR_289,"Korea, Republic of",??????????????????????????,37.542036,127.049685,Y,511,984,,37.542036,127.049685,,100704,2623259,KR,reference grade,east_asia,8537406
KR_290,"Korea, Republic of",?????????????????????,35.9668107,129.4086805,Y,505,991,,35.9668107,129.4086805,,100705,2623261,KR,reference grade,east_asia,8535215
KR_291,"Korea, Republic of",???????????????????????,35.204728,129.1042,Y,502,990,,35.204728,129.1042,,100706,2623263,KR,reference grade,east_asia,8541563
KR_292,"Korea, Republic of",????????????????????,37.3857,126.8619,Y,511,983,,37.3857,126.8619,,100707,2623277,KR,reference grade,east_asia,8542193
KR_293,"Korea, Republic of",??????????????????????????????,37.474899,126.898657,Y,511,983,,37.474899,126.898657,,100709,2623811,KR,reference grade,east_asia,8536614
KR_294,"Korea, Republic of",????????????????????????,35.371633,128.676483,Y,502,989,,35.371633,128.676483,,100715,2623808,KR,reference grade,east_asia,8537512
KR_295,"Korea, Republic of",?????????????????????,36.305084,127.570789,Y,506,985,,36.305084,127.570789,,100716,2623806,KR,reference grade,east_asia,8534529
KR_296,"Korea, Republic of",???????????????????????,36.070725,129.380278,Y,505,991,,36.070725,129.380278,,100717,2623804,KR,reference grade,east_asia,8536395
KR_297,"Korea, Republic of",????????????????,37.545556,126.675833,Y,511,982,,37.545556,126.675833,,100718,2623802,KR,reference grade,east_asia,8534312
KR_298,"Korea, Republic of",??????????????????????????,37.2437,126.5854,Y,510,982,,37.2437,126.5854,,100719,2623800,KR,reference grade,east_asia,8537182
KR_299,"Korea, Republic of",???????????????????????,34.7539,127.7468,Y,500,986,,34.7539,127.7468,,100720,2623792,KR,reference grade,east_asia,8535582
KR_300,"Korea, Republic of",????????????,37.280224,127.11514,Y,510,984,,37.280224,127.11514,,100721,2623790,KR,reference grade,east_asia,8534445
KR_301,"Korea, Republic of",????????????????????????,35.9907908,129.2269476,Y,505,991,,35.9907908,129.2269476,,100722,2623788,KR,reference grade,east_asia,8536213
KR_302,"Korea, Republic of",?????????¦?????????????????,37.433297,129.190496,Y,511,990,,37.433297,129.190496,,100726,2876865,KR,reference grade,east_asia,9445896
KR_303,"Korea, Republic of",??????????????????????????,35.438115,129.336917,Y,503,991,,35.438115,129.336917,,100728,2623786,KR,reference grade,east_asia,8535788
KR_304,"Korea, Republic of",???????????????????????,35.941567,127.165783,Y,505,984,,35.941567,127.165783,,100729,2623784,KR,reference grade,east_asia,8536056
KR_305,"Korea, Republic of",???????????????,34.75784,126.452808,Y,500,982,,34.75784,126.452808,,100730,2623782,KR,reference grade,east_asia,8534378
KR_306,"Korea, Republic of",????????????????????????,35.0652356,126.9857882,Y,501,983,,35.0652356,126.9857882,,100736,2623780,KR,reference grade,east_asia,8536403
KR_307,"Korea, Republic of",?????????¦??????????????,35.414667,129.172083,Y,503,990,,35.414667,129.172083,,100737,2623779,KR,reference grade,east_asia,8540445
KR_308,"Korea, Republic of",????????????????????????,36.592906,127.292253,Y,507,984,,36.592906,127.292253,,100761,2623751,KR,reference grade,east_asia,8534031
KR_309,"Korea, Republic of",??????????????????????,37.125508,128.198426,Y,510,987,,37.125508,128.198426,,100762,2623749,KR,reference grade,east_asia,8536860
KR_310,"Korea, Republic of",????????????????????????,36.883421,127.207371,Y,509,984,,36.883421,127.207371,,100778,2623747,KR,reference grade,east_asia,8533994
KR_311,"Korea, Republic of",????????????????,37.196921,127.0723,Y,510,984,,37.196921,127.0723,,100779,2623746,KR,reference grade,east_asia,8535535
KR_312,"Korea, Republic of",????????????????????????,36.828034,127.104606,Y,508,984,,36.828034,127.104606,,100780,2623743,KR,reference grade,east_asia,8539932
KR_313,"Korea, Republic of",??????????????????????????,34.7555612,126.1260116,Y,500,981,,34.7555612,126.1260116,,100790,2623740,KR,reference grade,east_asia,8535670
KR_314,"Korea, Republic of",??????????????1????????,37.36615,127.22856,Y,510,984,,37.36615,127.22856,,100791,2623738,KR,reference grade,east_asia,8534270
KR_315,"Korea, Republic of",????????????????,37.49659,126.487769,Y,511,982,,37.49659,126.487769,,100798,2623734,KR,reference grade,east_asia,8533928
KR_316,"Korea, Republic of",?????????????????????,35.315748,128.253757,Y,502,987,,35.315748,128.253757,,100799,2623732,KR,reference grade,east_asia,8536408
KR_317,"Korea, Republic of",???????????????,35.157731,129.143794,Y,502,990,,35.157731,129.143794,,100800,2623729,KR,reference grade,east_asia,8534226
KR_318,"Korea, Republic of",???????????????????????????,36.354444,127.383056,Y,506,985,,36.354444,127.383056,,100801,2623728,KR,reference grade,east_asia,8534688
KR_319,"Korea, Republic of",????????????????????????,36.07865,126.96658,Y,505,983,,36.07865,126.96658,,100802,2623726,KR,reference grade,east_asia,8536554
KR_320,"Korea, Republic of",???????????????????????,35.173784,128.986052,Y,502,990,,35.173784,128.986052,,100803,2623724,KR,reference grade,east_asia,8537078
KR_321,"Korea, Republic of",???????????????????????????????????(????????????????????????),37.316703,126.82792,Y,510,983,,37.316703,126.82792,,100807,2623722,KR,reference grade,east_asia,8537550
KR_322,"Korea, Republic of",????????????????,37.404839,126.697158,Y,511,982,,37.404839,126.697158,,100809,2623720,KR,reference grade,east_asia,8535999
KR_323,"Korea, Republic of",????????????????????????,37.603593,127.026007,Y,511,983,,37.603593,127.026007,,100810,2623718,KR,reference grade,east_asia,8536929
KR_324,"Korea, Republic of",?????????????????????????,37.1725568,128.4551652,Y,510,988,,37.1725568,128.4551652,,100812,2623716,KR,reference grade,east_asia,8537161
KR_325,"Korea, Republic of",???????????????,35.1708927,129.1741659,Y,502,990,,35.1708927,129.1741659,,100813,2623777,KR,reference grade,east_asia,8535223
KR_326,"Korea, Republic of",???????????????????????,36.05249,129.360814,Y,505,991,,36.05249,129.360814,,100814,2623775,KR,reference grade,east_asia,8535946
KR_327,"Korea, Republic of",?????????????????????????,36.6132262,127.4686138,Y,507,985,,36.6132262,127.4686138,,100816,2623713,KR,reference grade,east_asia,8536937
KR_328,"Korea, Republic of",??????????????????????,37.698672,127.204729,Y,512,984,,37.698672,127.204729,,100817,2623711,KR,reference grade,east_asia,8535113
KR_329,"Korea, Republic of",????????????????????????,35.22583036,128.5032583,Y,502,988,,35.22583036,128.5032583,,100819,2623709,KR,reference grade,east_asia,8534444
KR_330,"Korea, Republic of",???????????????????????,36.813261,127.615808,Y,508,985,,36.813261,127.615808,,100820,2623707,KR,reference grade,east_asia,8537083
KR_331,"Korea, Republic of",???????????????,36.6529558,126.6677018,Y,508,982,,36.6529558,126.6677018,,100837,2623706,KR,reference grade,east_asia,8537276
KR_332,"Korea, Republic of",???????????????,36.15287,126.549494,Y,506,982,,36.15287,126.549494,,100848,2623691,KR,reference grade,east_asia,8538676
KR_333,"Korea, Republic of",???????????????????????(?????????????????????????),37.1710811,127.052049,Y,510,984,,37.1710811,127.052049,,100849,2623690,KR,reference grade,east_asia,8542232
KR_334,"Korea, Republic of",?????????????????????????,36.455152,126.804931,Y,507,983,,36.455152,126.804931,,100850,2623689,KR,reference grade,east_asia,8543610
KR_335,"Korea, Republic of",???????????????????????,35.874296,128.584136,Y,504,988,,35.874296,128.584136,,100851,2623685,KR,reference grade,east_asia,8535507
KR_336,"Korea, Republic of",??????????????????????????,35.311711,126.972914,Y,502,983,,35.311711,126.972914,,100852,2623683,KR,reference grade,east_asia,8535774
KR_337,"Korea, Republic of",??????????????????????????????????,37.4800328,126.7999056,Y,511,983,,37.4800328,126.7999056,,100853,2623681,KR,reference grade,east_asia,8533982
KR_338,"Korea, Republic of",??????????????????????????????,37.562821,126.826071,Y,511,983,,37.562821,126.826071,,100854,2623679,KR,reference grade,east_asia,8535546
KR_339,"Korea, Republic of",?????????????????????,36.576821,128.472886,Y,507,988,,36.576821,128.472886,,100855,2623677,KR,reference grade,east_asia,8534410
KR_340,"Korea, Republic of",?????????????????????????????,35.889757,128.633064,Y,505,989,,35.889757,128.633064,,100856,2623675,KR,reference grade,east_asia,8536391
KR_341,"Korea, Republic of",????????????????????????,35.409278,127.384754,Y,503,985,,35.409278,127.384754,,100857,2623673,KR,reference grade,east_asia,8535553
KR_342,"Korea, Republic of",????????????????????????,34.6446579,126.7711918,Y,500,983,,34.6446579,126.7711918,,100858,2623671,KR,reference grade,east_asia,8534608
KR_343,"Korea, Republic of",????????????????????????,34.4792914,126.2687164,Y,499,981,,34.4792914,126.2687164,,100859,2623669,KR,reference grade,east_asia,8535912
KR_344,"Korea, Republic of",??????????????¦???????,33.409109,126.268778,Y,495,981,,33.409109,126.268778,,100860,2623667,KR,reference grade,east_asia,8537042
KR_345,"Korea, Republic of",?????????????????????????,35.1000281,126.8965634,Y,501,983,,35.1000281,126.8965634,,100861,2623651,KR,reference grade,east_asia,8535074
KR_346,"Korea, Republic of",????????????????????????,35.875737,128.812259,Y,505,989,,35.875737,128.812259,,100862,2623649,KR,reference grade,east_asia,8534280
KR_347,"Korea, Republic of",????????????????????????????,37.580842,127.226766,Y,511,984,,37.580842,127.226766,,100863,2623647,KR,reference grade,east_asia,8535228
KR_348,"Korea, Republic of",???????????????????????????,37.449722,126.724167,Y,511,983,,37.449722,126.724167,,100864,2623645,KR,reference grade,east_asia,8534492
KR_349,"Korea, Republic of",??????????????????????????,37.452158,126.884909,Y,511,983,,37.452158,126.884909,,100865,2623643,KR,reference grade,east_asia,8537018
KR_350,"Korea, Republic of",??????????????????????,35.976403,127.205523,Y,505,984,,35.976403,127.205523,,100866,2623641,KR,reference grade,east_asia,8535573
KR_351,"Korea, Republic of",??????????????????????,36.107179,127.490685,Y,505,985,,36.107179,127.490685,,100867,2623640,KR,reference grade,east_asia,8541569
KR_352,"Korea, Republic of",????????????????¦,37.473818,126.643199,Y,511,982,,37.473818,126.643199,,100868,2623625,KR,reference grade,east_asia,8535379
KR_353,"Korea, Republic of",????????????????,37.441164,126.706817,Y,511,982,,37.441164,126.706817,,100869,2623623,KR,reference grade,east_asia,8534676
KR_354,"Korea, Republic of",?????????????????????????,35.850801,129.207344,Y,504,990,,35.850801,129.207344,,100870,2623621,KR,reference grade,east_asia,8537409
KR_355,"Korea, Republic of",???????????????????????,36.8550153,127.4413124,Y,508,985,,36.8550153,127.4413124,,100871,2623619,KR,reference grade,east_asia,8537080
KR_356,"Korea, Republic of",???????????????????????????????????????(???????????????????????),37.3825762,127.1027442,Y,511,984,,37.3825762,127.1027442,,100872,2623617,KR,reference grade,east_asia,8536945
KR_357,"Korea, Republic of",???????????????(DMZ),38.389557,128.248144,Y,515,987,,38.389557,128.248144,,100873,2623616,KR,reference grade,east_asia,8542011
KR_358,"Korea, Republic of",??????????????¦????????,36.82863,128.62621,Y,508,989,,36.82863,128.62621,,100882,2623614,KR,reference grade,east_asia,8537260
KR_359,"Korea, Republic of",???????????????????????,35.195891,128.074596,Y,502,987,,35.195891,128.074596,,100883,2623613,KR,reference grade,east_asia,8546262
KR_360,"Korea, Republic of",??????????????????????,35.8357126,126.7404835,Y,504,983,,35.8357126,126.7404835,,100886,2623609,KR,reference grade,east_asia,8535711
KR_361,"Korea, Republic of",???????????????????????,36.687115,126.832093,Y,508,983,,36.687115,126.832093,,100892,2623604,KR,reference grade,east_asia,8536630
KR_362,"Korea, Republic of",?????????????????????????,35.20413,126.8072,Y,502,983,,35.20413,126.8072,,100893,2623588,KR,reference grade,east_asia,8537438
KR_363,"Korea, Republic of",??????????????????????????,37.487644,126.725563,Y,511,983,,37.487644,126.725563,,100910,2805678,KR,reference grade,east_asia,8945859
KR_364,"Korea, Republic of",?????????¦???????????????,35.528793,129.326001,Y,503,991,,35.528793,129.326001,,100911,2623773,KR,reference grade,east_asia,8537021
KR_365,"Korea, Republic of",????????????????????????,36.904796,127.544593,Y,509,985,,36.904796,127.544593,,100914,2623771,KR,reference grade,east_asia,8535901
KR_366,"Korea, Republic of",?????????????????????????(????????????????),35.515703,129.35892,Y,503,991,,35.515703,129.35892,,100916,2623769,KR,reference grade,east_asia,8537642
KR_367,"Korea, Republic of",???????????????????????,37.785132,128.908776,Y,512,990,,37.785132,128.908776,,100920,2777985,KR,reference grade,east_asia,8883892
KR_368,"Korea, Republic of",???????????????????????,37.132356,126.920186,Y,510,983,,37.132356,126.920186,,100922,2623766,KR,reference grade,east_asia,8542958
KR_369,"Korea, Republic of",??????????????????????,35.56723,128.16517,Y,503,987,,35.56723,128.16517,,100925,2623763,KR,reference grade,east_asia,8535908
KR_370,"Korea, Republic of",?????????????????????????,37.138467,127.54645,Y,510,985,,37.138467,127.54645,,100927,2622562,KR,reference grade,east_asia,8537674
KR_371,"Korea, Republic of",?????????????????,37.4903861,126.7236421,Y,511,983,,37.4903861,126.7236421,,100928,2623760,KR,reference grade,east_asia,8536816
KR_372,"Korea, Republic of",?????????????????????,37.55561,126.905457,Y,511,983,,37.55561,126.905457,,100932,2623586,KR,reference grade,east_asia,8536240
KR_373,"Korea, Republic of",?????????¦???????¦????????,34.824764,127.731615,Y,500,986,,34.824764,127.731615,,100936,2623584,KR,reference grade,east_asia,8534717
Melbourne_7,Australia,Mooroolbark,-37.77512,145.3284,Y,210,1042,,-37.77512,145.3284,,100937,2746518,AU,reference grade,unknown,8815172
KR_374,"Korea, Republic of",????????????????,37.52922,126.71511,Y,511,982,,37.52922,126.71511,,100938,2623582,KR,reference grade,east_asia,8537455
KR_375,"Korea, Republic of",???????????????????????,37.0746,127.4244,Y,509,985,,37.0746,127.4244,,100939,2623580,KR,reference grade,east_asia,8534561
KR_376,"Korea, Republic of",??????????????????????????,37.457778,126.690833,Y,511,982,,37.457778,126.690833,,100940,2623579,KR,reference grade,east_asia,8537240
KR_377,"Korea, Republic of",?????????????????????????,36.425168,127.395931,Y,507,985,,36.425168,127.395931,,100941,2623758,KR,reference grade,east_asia,8536575
KR_378,"Korea, Republic of",???????????????????????,37.3612,126.9362,Y,510,983,,37.3612,126.9362,,100946,2623577,KR,reference grade,east_asia,8537417
KR_379,"Korea, Republic of",??????????????????????,36.746709,126.301512,Y,508,981,,36.746709,126.301512,,100950,2623575,KR,reference grade,east_asia,8536757
KR_380,"Korea, Republic of",?????????????????????????,37.657822,127.300702,Y,512,984,,37.657822,127.300702,,100952,2623573,KR,reference grade,east_asia,8534075
KR_381,"Korea, Republic of",???????????????????????????,37.350901,127.352363,Y,510,985,,37.350901,127.352363,,100953,2623571,KR,reference grade,east_asia,8534930
KR_382,"Korea, Republic of",??????????????????????,35.8357805,129.2869852,Y,504,991,,35.8357805,129.2869852,,100955,2623569,KR,reference grade,east_asia,8537025
KR_383,"Korea, Republic of",??????????????????????????,36.3682,127.3185,Y,506,984,,36.3682,127.3185,,100956,2623756,KR,reference grade,east_asia,8534014
KR_384,"Korea, Republic of",????????????????,38.0964,127.0763,Y,513,984,,38.0964,127.0763,,100957,2623567,KR,reference grade,east_asia,8536257
KR_385,"Korea, Republic of",???????????????????????1,36.323889,127.418333,Y,506,985,,36.323889,127.418333,,100960,2623565,KR,reference grade,east_asia,8534631
KR_386,"Korea, Republic of",???????????????????????,37.554936,126.937619,Y,511,983,,37.554936,126.937619,,100963,2623563,KR,reference grade,east_asia,8537117
KR_387,"Korea, Republic of",???????????????????????,35.099849,129.030344,Y,501,990,,35.099849,129.030344,,100965,2623547,KR,reference grade,east_asia,8534557
